,name,pop,lat,lon
0,Alb-Donau-Kreis,28885,48.4011324,9.8362713
1,Baden-Baden,3215,48.7580777,8.2415239
2,Biberach,36538,48.6085862,8.212817
3,Böblingen,58602,48.684969,9.0113444
4,Bodenseekreis,36610,47.7145053,9.3789822
5,Breisgau-Hochschwarzwald,49638,47.941164,7.8471664
6,Calw,19445,48.7153344,8.7381796
7,Emmendingen,27200,48.1206565,7.850993
8,Enzkreis,29089,48.9099929,8.7397318
9,Esslingen,56350,48.7427584,9.3071685
10,Freiburg im Breisgau,43531,48.0021322,7.823903
11,Freudenstadt,13190,48.4637727,8.4111727
12,Göppingen,19738,48.7052936,9.6607959
13,Heidelberg,26947,49.4093608,8.6948125
14,Heidenheim,3554,48.6767637,10.152923
15,Heilbronn,76792,49.1422908,9.2186549
16,Heilbronn Stadt,8871,49.1422908,9.2186549
17,Hohenlohekreis,22713,49.2725125,9.6057331
18,Karlsruhe,66517,49.0140679,8.4044366
19,Karlsruhe Stadt,39460,49.01585255,8.4097980563
20,Konstanz,43887,47.659216,9.1750718
21,Lörrach,32688,47.6120896,7.6607218
22,Ludwigsburg,83988,48.8956194,9.1895147
23,Main-Tauber-Kreis,8408,49.5712667,9.7000589
24,Mannheim,4653,49.4895914,8.4672361
25,Neckar-Odenwald-Kreis,10995,49.4221407,9.2186222
26,Ortenaukreis,60984,48.4111059,8.0062094
27,Ostalbkreis,28633,48.8777738,10.0337317
28,Pforzheim,12761,48.8908846,8.7029532
29,Rastatt,30084,48.8574209,8.2088088
30,Ravensburg,41704,47.7811014,9.612468
31,Rems-Murr-Kreis,53382,48.8934,9.4672129
32,Reutlingen,33785,48.4919508,9.2114144
33,Rhein-Neckar-Kreis,69387,49.3684797,8.7352403
34,Rottweil,9116,48.165531,8.6251283
35,Schwäbisch Hall,34933,49.1123963,9.7369047
36,Schwarzwald-Baar-Kreis,13496,48.048325,8.396666
37,Sigmaringen,14066,48.0854402,9.2179178
38,Stuttgart,60537,48.7784485,9.1800132
39,Tübingen,42500,48.5236164,9.0535531
40,Tuttlingen,21722,47.9844382,8.818666
41,Ulm,17220,48.398312,9.9910464
42,Waldshut,20328,47.6221367,8.2170582
43,Zollernalbkreis,14115,48.247988,8.8893344
44,Aichach-Friedberg,27502,48.4335,11.0772281
45,Altötting,13249,48.2268085,12.6757914
46,Amberg,-1035,49.4454211,11.858728
47,Amberg-Sulzbach,8428,49.4801852,11.7836407
48,Ansbach,21787,49.3027671,10.5722194
49,Ansbach Stadt,3040,49.3027671,10.5722194
50,Aschaffenburg,20409,49.9740542,9.1493636
51,Aschaffenburg Stadt,7203,49.9740542,9.1493636
52,Augsburg,51228,48.3668041,10.8986971
53,Augsburg Stadt,38292,48.34336385,10.8951546142
54,Bad Kissingen,3879,50.1996726,10.0780665
55,Bad Tölz-Wolfratshausen,24761,47.7825524,11.4873095
56,Bamberg,24866,49.8926723,10.8876149
57,Bamberg Stadt,2852,49.8926723,10.8876149
58,Bayreuth,7843,49.9427202,11.5763079
59,Bayreuth Stadt,1788,49.9427202,11.5763079
60,Berchtesgadener Land,12287,47.7494467,12.9216667
61,Cham,4443,49.2178194,12.6663832
62,Coburg,4682,50.258112,10.964463
63,Coburg Stadt,-1847,50.258112,10.964463
64,Dachau,41999,48.2588318,11.4339286
65,Deggendorf,14263,48.8333535,12.96205
66,Dillingen an der Donau,13269,48.5811652,10.4954947
67,Dingolfing-Landau,17933,48.6366667,12.5877667
68,Donau-Ries,12720,48.8148705,10.69735
69,Ebersberg,38590,48.0765786,11.9647521
70,Eichstätt,29842,48.8928801,11.1872697
71,Erding,42649,48.3064441,11.9076579
72,Erlangen,6615,49.5981208,11.0036532
73,Erlangen-Höchstadt,26717,49.64042,10.930096
74,Forchheim,16467,49.7187128,11.059642
75,Freising,51839,48.4008273,11.7439565
76,Freyung-Grafenau,2363,48.81666,13.481332
77,Fürstenfeldbruck,37518,48.1813797,11.2382125
78,Fürth,19986,49.4772631,10.9896165
79,Fürth Stadt,24039,49.4772631,10.9896165
80,Garmisch-Partenkirchen,7149,47.4938359,11.103992
81,Günzburg,14708,48.4539028,10.2785509
82,Haßberge,3895,50.0591577,10.6106885
83,Hof,-9020,50.3219015,11.9178807
84,Hof Stadt,-6783,50.7591658,7.3711598
85,Ingolstadt,34931,48.7630165,11.4250395
86,Kaufbeuren,3068,47.8803788,10.622246
87,Kelheim,26455,48.9187285,11.8727886
88,Kempten (Allgäu),6255,47.7267063,10.3168835
89,Kitzingen,9188,49.7339751,10.161216
90,Kronach,-7355,50.2397846,11.3277669
91,Kulmbach,-514,50.1008448,11.4479149
92,Landsberg am Lech,32506,48.0514973,10.8737728
93,Landshut,36175,48.536217,12.1516551
94,Landshut Stadt,11063,48.536217,12.1516551
95,Lichtenfels,938,50.1453156,11.0680042
96,Lindau (Bodensee),9865,47.57286685,9.6961918511
97,Main-Spessart,3868,49.9690725,9.6403768
98,Memmingen,4074,47.9867696,10.181319
99,Miesbach,15933,47.790025,11.8335417
100,Miltenberg,13686,49.7034965,9.2512498
101,Mühldorf am Inn,17414,48.240507,12.5252449
102,München,83016,48.1371079,11.5753822
103,München Stadt,244163,48.17379255,11.5006016814
104,Neuburg-Schrobenhausen,17012,48.6536944,11.2250111
105,Neumarkt in der Oberpfalz,23629,49.2159263,11.5329526
106,Neustadt an der Aisch-Bad Windsheim,12122,49.583431,10.4145486608
107,Neustadt an der Waldnaab,3392,49.7314121,12.1732938
108,Neu-Ulm,27181,48.3954965,10.00589
109,Nürnberg,30129,49.4538723,11.0772978
110,Nürnberger Land,16791,49.5091089,11.3569617862
111,Oberallgäu,22316,47.6130964,10.270825
112,Ostallgäu,21347,47.8025889,10.6259267
113,Passau,23929,48.5740136,13.4606445
114,Passau Stadt,1436,48.5740136,13.4606445
115,Pfaffenhofen an der Ilm,33145,48.6046333,11.5185333
116,Regen,-423,48.9700463,13.1261867
117,Regensburg,42927,49.0195333,12.0974869
118,Regensburg Stadt,23653,49.0195333,12.0974869
119,Rhön-Grabfeld,2479,50.4690931,10.0953931
120,Rosenheim,61746,47.8539273,12.127262
121,Rosenheim Stadt,7734,47.8539273,12.127262
122,Roth,19946,49.2458557,11.0909712
123,Rottal-Inn,14151,48.411799,12.8459952151
124,Schwabach,6402,49.3295535,11.0195132
125,Schwandorf,12354,49.3261854,12.1092708
126,Schweinfurt,10050,50.0499945,10.233302
127,Schweinfurt Stadt,-352,50.0469079,10.2445285
128,Starnberg,22986,48.0001038,11.3508972
129,Straubing,5934,48.8818792,12.5695073
130,Straubing-Bogen,16905,48.9270243,12.6265811
131,Tirschenreuth,-4615,49.8780269,12.3372014
132,Traunstein,26570,47.8701474,12.6423403
133,Unterallgäu,22942,48.033975,10.35
134,Weiden in der Oberpfalz,-283,49.6752749,12.1631636
135,Weilheim-Schongau,24814,47.7906545,11.0631242
136,Weißenburg-Gunzenhausen,6137,49.03156455,10.929762487
137,Wunsiedel im Fichtelgebirge,-14538,50.0373442,12.0027487
138,Würzburg,20992,49.79245,9.9329662
139,Würzburg Stadt,841,49.79245,9.9329662
140,Berlin,209849,52.5170365,13.3888599
141,Barnim,174981,52.8020302,13.6771959674
142,Brandenburg an der Havel,71032,52.4108261,12.5497933
143,Cottbus,99491,51.7567447,14.3357307
144,Dahme-Spreewald,161952,52.2280614,13.7663971246
145,Elbe-Elster,104997,51.6273649,13.4806024253
146,Frankfurt (Oder),57649,52.3412273,14.549452
147,Havelland,155408,52.728493,13.3816348
148,Märkisch-Oderland,188422,52.63829305,14.1778995399
149,Oberhavel,204898,52.91888095,13.2279803025
150,Oberspreewald-Lausitz,112896,51.63100315,14.0338552466
151,Oder-Spree,177823,52.25021415,14.2683876185
152,Ostprignitz-Ruppin,98886,53.0019582,12.703458911
153,Potsdam,164042,52.4009309,13.0591397
154,Potsdam-Mittelmark,207498,52.3940842,13.1732342
155,Prignitz,77550,52.9990183,11.7570644847
156,Spree-Neiße,118030,51.8445872,14.1306236
157,Teltow-Fläming,161488,52.3931335,13.3591516652
158,Uckermark,120829,53.2452696,13.9151266547
159,Bremen,18312,53.0758196,8.8071646
160,Bremerhaven,-16508,53.5522264,8.5865509
161,Hamburg,170021,53.5437641,10.0099133
162,Bergstraße,23711,49.6408048,8.6372164
163,Darmstadt,17607,49.8727746,8.6511775
164,Darmstadt-Dieburg,38983,49.882598,8.8481024
165,Frankfurt am Main,99358,50.1106529,8.6820934
166,Fulda,29849,50.5521486,9.676511
167,Gießen,33867,50.5843976,8.67487
168,Groß-Gerau,33778,49.9201916,8.4721534
169,Hersfeld-Rotenburg,-5874,50.9015054,9.762825476
170,Hochtaunuskreis,27578,50.2431313,8.5092694
171,Kassel,11241,51.3090209,9.4762981
172,Kassel Stadt,7459,51.3402821,9.4884274325
173,Lahn-Dill-Kreis,13617,50.603569,8.391651
174,Limburg-Weilburg,18548,50.4411601,8.1577966
175,Main-Kinzig-Kreis,50071,50.2119793,9.1521552
176,Main-Taunus-Kreis,29946,50.0999917,8.4708325
177,Marburg-Biedenkopf,12256,50.8330156,8.7332066
178,Odenwaldkreis,10412,49.6841067,8.973222
179,Offenbach,40042,50.0887662,8.7662861
180,Offenbach am Main,9602,50.0887662,8.7662861
181,Rheingau-Taunus-Kreis,18947,50.1241483,8.0912155
182,Schwalm-Eder-Kreis,2777,51.0606947,9.4001823
183,Vogelsbergkreis,-1929,50.6412263,9.258772
184,Waldeck-Frankenberg,6586,51.2794889,8.9351428
185,Werra-Meißner-Kreis,-12190,51.2486593,9.9249155
186,Wetteraukreis,46624,50.344664,8.8920004
187,Wiesbaden,23245,50.0833,8.25
188,Landkreis Rostock,211878,53.9210095,12.2936902491
189,Ludwigslust-Parchim,212631,53.3300229,11.4993644
190,Mecklenburgische Seenplatte,261733,53.58372785,13.0637987031
191,Nordwestmecklenburg,155424,53.8104827,11.2325183
192,Rostock,204167,54.0924445,12.1286127
193,Schwerin,92138,53.6288297,11.4148038
194,Vorpommern-Greifswald,237697,53.72458615,13.8981846706
195,Vorpommern-Rügen,223470,54.2288565,12.8131641504
196,Ammerland,26314,53.2138834,8.0055549
197,Aurich,19717,53.4695604,7.4823808
198,Braunschweig,-3849,52.2639962,10.5252669
199,Celle,10724,52.6240562,10.0810524
200,Cloppenburg,47107,52.8461339,8.0438783
201,Cuxhaven,6553,53.8687798,8.6982859
202,Delmenhorst,2732,53.048095,8.6286066
203,Diepholz,27645,52.6113677,8.372661
204,Emden,-128,53.3670442,7.2058004
205,Emsland,60363,52.6987679,7.3660321859
206,Friesland,3303,53.467993,8.0221914
207,Gifhorn,43036,52.4827905,10.5445691
208,Goslar,-20583,51.9059936,10.4266284
209,Göttingen,5266,51.5327604,9.9352051
210,Grafschaft Bentheim,16965,52.4647463,7.0102561
211,Hameln-Pyrmont,-6741,52.0895789,9.3875409
212,Harburg,56489,53.4541741,9.9890136
213,Heidekreis (Soltau-Fallingbostel),13013,52.9094349,9.7816852921
214,Helmstedt,-6899,52.2277037,11.0104702
215,Hildesheim,-5943,52.1521636,9.9513046
216,Holzminden,-8632,51.828966,9.4463346
217,Leer,21987,53.2473626,7.4631423456
218,Lüchow-Dannenberg,1071,53.0244717,11.0348965
219,Lüneburg,47407,53.248706,10.4078555
220,Nienburg/Weser,7422,52.6410849,9.2181918
221,Northeim,-13649,51.705401,9.9972782
222,Oldenburg,27374,53.1389753,8.2146017
223,Oldenburg Stadt,20758,53.1389753,8.2146017
224,Osnabrück,57645,52.2668373,8.0497412
225,Osnabrück Stadt,6090,52.2668373,8.0497412
226,Osterholz,17288,53.055514,8.9507122
227,Osterode am Harz,-13318,51.7277337,10.2509867
228,Peine,13051,52.3213442,10.2324587
229,Region Hannover,87609,52.3797179,9.7273217
230,Rotenburg (Wümme),23946,53.1108906,9.4049292
231,Salzgitter,-12103,52.1503721,10.3593147
232,Schaumburg,5679,48.5804629,12.2575141
233,Stade,33679,53.5997939,9.4754378
234,Uelzen,756,52.9668375,10.5586149
235,Vechta,34557,52.7310837,8.2873269
236,Verden,19992,52.9223406,9.2281533
237,Wesermarsch,-584,53.3367145,8.4316607
238,Wilhelmshaven,-15448,53.5278793,8.106301
239,Wittmund,4179,53.5820786,7.7853342
240,Wolfenbüttel,4665,52.1625283,10.5348215
241,Wolfsburg,-1869,52.4205588,10.7861682
242,Bielefeld,24216,52.010877,8.540868
243,Bochum,-24395,51.482321,7.2187465
244,Bonn,37305,50.7358511,7.1006599
245,Borken,57413,51.8443183,6.8582247
246,Bottrop,1377,51.5215805,6.9292036
247,Coesfeld,39803,51.9452704,7.1676886
248,Dortmund,-3578,51.5142273,7.4652789
249,Duisburg,-39913,51.4349994,6.7595621
250,Düren,25233,50.8031684,6.4820806
251,Düsseldorf,40996,51.2254018,6.7763137
252,Ennepe-Ruhr-Kreis,-16469,51.3481444,7.3351844
253,Essen,-49643,51.4572062,7.0114963
254,Euskirchen,25338,50.661098,6.7876887
255,Gelsenkirchen,-29857,51.5109791,7.0959263
256,Gütersloh,66580,51.9063997,8.3782078
257,Hagen,-22647,51.357862,7.4727227
258,Hamm,5410,51.6615566,7.8166611294
259,Heinsberg,36565,51.0653377,6.0985832
260,Herford,21671,52.1152245,8.6711118
261,Herne,-19630,51.5380394,7.219985
262,Hochsauerlandkreis,1296,51.2958333,8.4208325
263,Höxter,2117,51.7747369,9.3816877
264,Kleve,43931,51.7854839,6.1313674153
265,Köln,118371,50.9383611,6.9599738
266,Krefeld,-9761,51.3331205,6.5623343
267,Leverkusen,6848,51.0324743,6.9881194
268,Lippe,26723,51.6711151,7.7158528
269,Märkischer Kreis,-7501,51.2655533,7.6986113
270,Mettmann,-1989,51.2527778,6.9777778
271,Minden-Lübbecke,26628,52.2881045,8.9168852
272,Mönchengladbach,7266,51.1946983,6.4353641
273,Mülheim an der Ruhr,-9315,51.4272809,6.8828707
274,Münster,55992,51.9501317,7.6133016503
275,Oberbergischer Kreis,25227,51.0128184,7.5179457
276,Oberhausen,-10994,51.51399325,6.8493227613
277,Olpe,9617,51.0297603,7.8424193
278,Paderborn,68354,51.71895955,8.7648697782
279,Recklinghausen,-17932,51.6143815,7.1978546
280,Remscheid,-11123,51.1798706,7.1943544
281,Rhein-Erft-Kreis,59697,50.90334,6.763334
282,Rheinisch-Bergischer Kreis,29755,51.0350162,7.1726234
283,Rhein-Kreis Neuss,38758,51.1520625,6.6354162
284,Rhein-Sieg-Kreis,109328,50.752824,7.3813805717
285,Siegen-Wittgenstein,-3791,50.9175238,8.137557212
286,Soest,30049,51.5725501,8.1061259
287,Solingen,-2332,51.1712468,7.0838996
288,Städteregion Aachen,31955,50.7611222,6.2055544
289,Steinfurt,58711,52.1294289,7.3903454
290,Unna,4345,51.5348835,7.689014
291,Viersen,33370,51.2561445,6.3904284
292,Warendorf,25965,51.9532449,7.9912335
293,Wesel,31150,51.6576909,6.617087
294,Wuppertal,-20237,51.264018,7.1780374
295,Ahrweiler,15411,50.4365274,7.0050227
296,Altenkirchen (Westerwald),7471,50.68765685,7.6386073096
297,Alzey-Worms,26379,49.7543078,8.1422038
298,Bad Dürkheim,11401,49.4632944,8.1705063
299,Bad Kreuznach,10978,49.8489566,7.8628083
300,Bernkastel-Wittlich,5692,49.9294731,6.9384263
301,Birkenfeld,-4893,49.6488236,7.1647477
302,Bitburg-Prüm,6930,49.9732762,6.524947
303,Cochem-Zell,2781,50.1410231,7.1894684
304,Donnersbergkreis,8206,49.639283,7.9104292
305,Frankenthal (Pfalz),3007,49.5445804,8.3540061
306,Germersheim,22972,49.2222749,8.36659
307,Kaiserslautern,9159,49.4432174,7.7689951
308,Kaiserslautern Stadt,56,49.4432174,7.7689951
309,Koblenz,3188,50.3533278,7.5943951
310,Kusel,-4145,49.5399844,7.4008479
311,Landau in der Pfalz,8408,49.2071402,8.1133294
312,Ludwigshafen am Rhein,7231,49.487297,8.3900657727
313,Mainz,34462,49.9999952,8.2710237
314,Mainz-Bingen,40678,49.9076453,8.1207846
315,Mayen-Koblenz,22159,50.3023567,7.3735478
316,Neustadt an der Weinstraße,2444,49.3536748,8.1360914
317,Neuwied,22985,50.4302589,7.4663112
318,Pirmasens,-7951,49.1996961,7.6087847
319,Rhein-Hunsrück-Kreis,11121,50.0215164,7.4890547
320,Rhein-Lahn-Kreis,5729,50.2649233,7.8606742
321,Rhein-Pfalz-Kreis,20256,49.42944735,8.3140547151
322,Speyer,5821,49.3165553,8.433615
323,Südliche Weinstraße,12387,49.1848072,8.063071
324,Südwestpfalz,-2833,49.2225957,7.6196712
325,Trier,14354,49.7596208,6.6441878
326,Trier-Saarburg,18725,49.606135,6.5567008
327,Vulkaneifel,3735,50.2127575,6.8278962
328,Westerwaldkreis,28442,50.5568937,7.8657066
329,Worms,7375,49.6615131,8.3212040859
330,Zweibrücken,638,49.248655,7.3641981
331,Merzig-Wadern,3324,49.4427023,6.6374902
332,Neunkirchen,-15308,49.3464752,7.1843209488
333,Saarlouis,-11774,49.3164661,6.749846
334,Saarpfalz-Kreis,-7993,49.2615862,7.1986533257
335,Stadtverband Saarbrücken,-31857,49.2447573,6.9716628763
336,St. Wendel,-3017,49.4669906,7.1696192
337,Bautzen,-101840,51.1813907,14.4275735
338,Chemnitz,-92462,50.8322608,12.9252977
339,Dresden,-5944,51.0493286,13.7381437
340,Erzgebirgskreis,-126630,50.6985565,13.1792348
341,Görlitz,-130859,51.1517428,14.9844025
342,Leipzig,-37617,51.3391827,12.3810549
343,Leipzig Stadt,-56064,51.3391827,12.3810549
344,Meißen,-63728,51.1630871,13.4704939
345,Mittelsachsen,-101834,50.9169415,13.3428889
346,Nordsachsen,-47195,51.4568135,13.0064599
347,Sächsische Schweiz-Osterzgebirge,-46334,50.90361515,13.9237571407
348,Vogtlandkreis,-80116,50.4721761,12.269537
349,Zwickau,-107413,50.7185043,12.4939267
350,Altmarkkreis Salzwedel,86071,52.6911174,11.2303736
351,Anhalt-Bitterfeld,165076,51.5464347,12.1935884
352,Börde,172830,52.1829685,11.4530686
353,Burgenlandkreis,184055,51.12906475,11.8515581022
354,Dessau-Roßlau,83061,51.8311104,12.2429261
355,Halle (Saale),232470,51.4825041,11.9705452
356,Harz,219618,51.7499207,10.6334206
357,Jerichower Land,91359,52.2598284,11.9890582
358,Magdeburg,232305,52.1315889,11.6399609
359,Mansfeld-Südharz,142054,51.593159,11.4522586
360,Saalekreis,186510,51.4545448,11.8504631783
361,Salzlandkreis,196750,51.8508739,11.6007040109
362,Stendal,114668,52.6051341,11.8593217
363,Wittenberg,128721,51.91552465,12.6427281489
364,Dithmarschen,4802,54.0744326,9.2881557
365,Flensburg,-1860,54.7833021,9.4333264
366,Herzogtum Lauenburg,37230,53.6082248,10.5105236
367,Kiel,5381,54.3216753,10.1371858
368,Lübeck,3923,53.8664436,10.6847384
369,Neumünster,-2183,54.0715956,9.9865296
370,Nordfriesland,11983,54.6072964,8.8840629
371,Ostholstein,14796,54.1766629,10.84762
372,Pinneberg,44495,53.6615506,9.7968682
373,Plön,10973,54.1580815,10.4177105
374,Rendsburg-Eckernförde,26362,54.32778565,9.7204796572
375,Schleswig-Flensburg,19092,54.7743578,9.447881
376,Segeberg,52862,53.9232287,10.1612312
377,Steinburg,4598,53.9409342,9.5157896
378,Stormarn,44169,53.7215127,10.3586145
379,Altenburger Land,92705,50.9574967,12.3084845703
380,Eichsfeld,100730,51.4758395,7.488074
381,Eisenach,41884,50.9833,10.3166999
382,Erfurt,206219,50.9777974,11.0287364
383,Gera,94492,50.8772301,12.0796208
384,Gotha,135381,50.9462725,10.6945265
385,Greiz,101382,50.6562556,12.2008694
386,Hildburghausen,64673,50.4266785,10.7296992
387,Ilm-Kreis,108899,50.73144175,10.9314099233
388,Jena,108207,50.9331401,11.5833091
389,Kyffhäuserkreis,77148,51.31461125,10.8386459418
390,Nordhausen,85055,51.504916,10.7925145
391,Saale-Holzland-Kreis,83966,50.9166089,11.8097050574
392,Saale-Orla-Kreis,82887,50.58645455,11.7761741819
393,Saalfeld-Rudolstadt,109646,50.6481277,11.3616652
394,Schmalkalden-Meiningen,125056,50.722024,10.4514289
395,Sömmerda,70537,51.1620125,11.1178539
396,Sonneberg,56809,50.3575412,11.1691714
397,Suhl,36208,50.6086518,10.6926437
398,Unstrut-Hainich-Kreis,103922,51.1880771,10.5737597164
399,Wartburgkreis,125835,50.88491535,10.2375982898
400,Weimar,63477,50.9802813,11.3290855
401,Weimarer Land,81641,50.95679885,11.2053748223
