,name,pop,lat,lon
0,Eisenstadt (Stadt),13101,47.83875775,16.536215865
1,Eisenstadt-Umgebung,40936,47.8545964,16.668686334
2,Güssing,26624,47.058765,16.3243364
3,Jennersdorf,17573,46.9376401,16.1424422
4,Mattersburg,39050,47.72096675,16.3841730409
5,Neusiedl am See,55337,47.9491855,16.8425149
6,Oberpullendorf,37583,47.5012557,16.505547
7,Oberwart,53585,47.2861513,16.2124214
8,Rust (Stadt),1896,47.8003348,16.6749878
9,Feldkirchen,30285,46.7205396,14.0987985
10,Hermagor,18718,46.6538637,13.1002620036
11,Klagenfurt Land,58499,46.5821384,14.1508411979
12,Klagenfurt (Stadt),94483,46.64156035,14.3027720067
13,Sankt Veit an der Glan,56061,46.7672516,14.3613196
14,Spittal an der Drau,78043,46.7982211,13.4963308
15,Villach Land,64499,46.63673265,13.6788723136
16,Villach (Stadt),59324,46.61340635,13.8269610987
17,Völkermarkt,42237,46.5990959,14.6918849636
18,Wolfsberg,54024,46.8390956,14.8448315
19,Amstetten,112355,48.0897643,14.7326052197
20,Baden,139039,48.0085749,16.2334951
21,Bruck an der Leitha,42910,48.0255094,16.7790041
22,Gänserndorf,95841,48.3404132,16.7184526
23,Gmünd,37761,46.9065611,13.5359844
24,Hollabrunn,50301,48.5625384,16.0798033
25,Horn,31429,48.7296109,15.6446483653
26,Korneuburg,75281,48.44041125,16.2137866452
27,Krems an der Donau (Stadt),24032,48.4098093,15.6063186641
28,Krems (Land),55874,48.4509881,15.4820293972
29,Lilienfeld,26369,48.0149797,15.5966191
30,Melk,76344,48.2272068,15.3369992
31,Mistelbach,73962,48.56451565,16.5344861529
32,Mödling,114086,48.0782179,16.2770714943
33,Neunkirchen,85460,47.66438595,15.9680330485
34,Sankt Pölten (Land),96522,48.1385839,15.8176063691
35,Sankt Pölten (Stadt),51955,48.193315,15.6198714983
36,Scheibbs,41020,48.0036771,15.1642501
37,Tulln,70963,48.3478322,15.9632678771
38,Waidhofen an der Thaya,26738,48.8475066,15.3783421592
39,Waidhofen an der Ybbs (Stadt),11455,47.95126495,14.7445258559
40,Wiener Neustadt (Land),75064,47.86594825,15.9441992946
41,Wiener Neustadt (Stadt),41305,47.8087008,16.2369729243
42,Wien Umgebung,114920,48.073257,16.4960882552
43,Zwettl,43707,48.55353765,15.068078082
44,Braunau am Inn,97826,48.253136,13.039506
45,Eferding,31741,48.3082607,14.0203999
46,Freistadt,65113,48.5112961,14.5047566
47,Gmunden,99403,47.9185855,13.8003048
48,Grieskirchen,62555,48.235011,13.826192
49,Kirchdorf an der Krems,55557,47.85374205,14.2458938397
50,Linz-Land,139116,48.1730987,14.3124526
51,Linz (Stadt),189889,48.2948808,14.301744083
52,Perg,65738,48.29053155,14.6974639923
53,Ried im Innkreis,58553,48.2085868,13.48839
54,Rohrbach,56688,48.5728849,13.9897981174
55,Schärding,56426,48.4569975,13.4318
56,Steyr-Land,58700,47.9071065,14.5283802057
57,Steyr (Stadt),38205,48.0564418,14.4185043458
58,Urfahr-Umgebung,81400,48.4,14.2833333
59,Vöcklabruck,130316,48.0078587,13.6460378
60,Wels-Land,67945,48.13,13.93
61,Wels (Stadt),58591,48.1563978,14.0246656
62,Hallein,57651,47.6821521,13.0956313
63,Salzburg,145270,47.8001977,13.0410592
64,Salzburg-Umgebung,143081,47.8331394,13.1840938569
65,Sankt Johann im Pongau,78138,47.2845718,13.3403548088
66,Tamsweg,20502,47.1261065,13.8103817
67,Zell am See,84424,47.3239539,12.7962369
68,Bruck-Mürzzuschlag,101979,47.56783755,15.3793010026
69,Deutschlandsberg,60689,46.8184067,15.212387
70,Graz (Stadt),261726,47.0749638,15.4452153
71,Graz-Umgebung,143258,47.1097664,15.280327967
72,Hartberg-Fürstenfeld,90117,47.2478715,15.9284805472
73,Leibnitz,79446,46.81618915,15.5397766162
74,Leoben,61912,47.3827417,15.0942137
75,Liezen,80144,47.567685,14.2420508
76,Murau,29186,47.11224,14.16919
77,Murtal,73684,47.23281755,14.7130631645
78,Südoststeiermark,86598,46.85967165,15.8503647474
79,Voitsberg,52063,47.0504742,15.1474771
80,Weiz,87773,47.2174206,15.6221694
81,Imst,56557,47.2381536,10.7406982
82,Innsbruck-Land,166762,47.2065094,11.38369459
83,Innsbruck-Stadt,119617,47.2655707,11.3934374
84,Kitzbühel,61705,47.4463585,12.3911473
85,Kufstein,101047,47.582996,12.1692134
86,Landeck,43591,47.1424135,10.5704571
87,Lienz,49319,48.3059078,14.286198
88,Reutte,31618,47.4891092,10.7187955
89,Schwaz,79103,47.3449529,11.7084253
90,Bludenz,61025,47.153037,9.8219314
91,Bregenz,126930,47.5008652,9.7479477
92,Dornbirn,82386,47.4135969,9.7423955
93,Feldkirch,100099,47.2375671,9.5981724
94,Alsergrund,39291,48.22494185,16.358415885
95,Brigittenau,83356,48.2442356,16.3781463499
96,Döbling,68307,48.2612506,16.3284710204
97,Donaustadt,161419,48.2143607,16.4861263464
98,Favoriten,177989,48.1529937,16.3828218365
99,Floridsdorf,143962,48.27981505,16.4121345553
100,Hernals,52520,48.23567325,16.2844383382
101,Hietzing,50626,48.183,16.2939672
102,Innere Stadt,16374,48.20885945,16.3697671434
103,Josefstadt,23529,48.2108519,16.3473598619
104,Landstraße,84527,48.19364355,16.3962863914
105,Leopoldstadt,96113,48.2006384,16.4268953115
106,Liesing,94456,48.14110605,16.2939118777
107,Margareten,52595,48.18807345,16.3533860772
108,Mariahilf,29375,48.1954789,16.347190332
109,Meidling,88503,48.1719649,16.3286874076
110,Neubau,30019,48.20208325,16.3490612031
111,Ottakring,95694,48.2149566,16.3020868769
112,Penzing,84871,48.22566175,16.2227901448
113,Rudolfsheim-Fünfhaus,71286,48.195607,16.3264819411
114,Simmering,91087,48.16310865,16.4580088051
115,Währing,47627,48.23410535,16.321654225
116,Wieden,30701,48.2083537,16.3725042
