,name,pop,lat,lon
0,"Архангельск, Архангельская область",355781,64.5430227,40.5371212
1,"Холмогорский район, Архангельская область",25061,63.8159099,42.0762912471
2,"Каргопольский район, Архангельская область",18466,61.38804645,38.8755227686
3,"Коношский район, Архангельская область",26106,61.0623548,40.0469302766
4,"Коряжма, Архангельская область",39641,61.3151659,47.1607626
5,"Котлас, Архангельская область",73517,61.2521524,46.6476294
6,"Котласский район, Архангельская область",21005,61.32389375,46.5107391606
7,"Красноборский район, Архангельская область",13815,61.81350605,46.2987352594
8,"Ленский район, Архангельская область",13362,62.11498925,48.667644721
9,"Лешуконский район, Архангельская область",7979,64.8206996,47.59835932
10,"Мезенский район, Архангельская область",10330,66.82520795,42.8532198703
11,"Мирный, Архангельская область",30280,62.7623509,40.3286423
12,"Нарьян-Мар, Архангельская область",21658,67.6568997,53.0235954
13,"Няндомский район, Архангельская область",30244,61.9689515,40.6451411105
14,"Новая Земля, Архангельская область",2429,74,55.9978113
15,"Новодвинск, Архангельская область",40615,64.4192119,40.7937941
16,"Онежский район, Архангельская область",35376,63.68117145,38.1595954433
17,"Пинежский район, Архангельская область",26978,64.155835,44.4718266324
18,"Плесецкий район, Архангельская область",49077,62.94566635,39.4700976891
19,"Приморский район, Архангельская область",26327,80.8132475,55.6714071756
20,"Шенкурский район, Архангельская область",15196,62.1585518,42.6138601968
21,"Северодвинск, Архангельская область",193607,64.5633236,39.8243248
22,"Устьянский район, Архангельская область",30581,61.2966137,44.1411206979
23,"Вельский район, Архангельская область",54792,61.34300005,41.9927924408
24,"Верхнетоемский район, Архангельская область",17060,62.43019235,45.649967102
25,"Вилегодский район, Архангельская область",11158,61.18317825,48.3781433642
26,"Виноградовский район, Архангельская область",16753,62.9337315,43.5418013167
27,"Заполярный район, Архангельская область",20432,68.0835739,49.9952203
28,"Адмиралтейский, Санкт-Петербург",157897,59.9183229,30.30278262
29,"Центральный, Санкт-Петербург",214625,60.198398,29.7058023
30,"Фрунзенский, Санкт-Петербург",401779,59.86620335,30.3921876512
31,"Калининский, Санкт-Петербург",504641,59.9698321,30.3854021
32,"Кировский, Санкт-Петербург",334746,59.8999245,30.272031581
33,"Колпинский, Санкт-Петербург",177448,59.77761445,30.6252322875
34,"Красногвардейский, Санкт-Петербург",337091,59.9782013,30.4865285693
35,"Красносельский, Санкт-Петербург",330546,59.78203565,30.1122022624
36,"Кронштадтский, Санкт-Петербург",43005,59.9873259,29.7759790373
37,"Курортный, Санкт-Петербург",70589,60.0938784,29.9729091
38,"Московский, Санкт-Петербург",288744,59.8468922,30.3224197
39,"Невский, Санкт-Петербург",466013,59.87079375,30.4660575828
40,"Петродворцовый, Санкт-Петербург",128156,59.8769163,29.847997073
41,"Петроградский, Санкт-Петербург",130455,59.9669351,30.3093724
42,"Приморский, Санкт-Петербург",507238,60.02341995,30.1947570027
43,"Пушкинский, Санкт-Петербург",135973,59.73341125,30.4224974902
44,"Василеостровский, Санкт-Петербург",203058,59.9526994,30.2586792
45,"Выборгский, Санкт-Петербург",447562,60.0190063,30.3209429
46,"Багратионовский район, Калининградская область",32352,54.49286715,20.4015507524
47,"Балтийский район, Калининградская область",36047,54.6310451,19.8798240876
48,"Черняховский район, Калининградская область",51936,54.6682908,21.6995243835
49,"Гурьевский городской округ, Калининградская область",52988,54.7578213,20.7032296926
50,"Гусевский городской округ, Калининградская область",37142,54.6482441,22.1801945453
51,"Гвардейский район, Калининградская область",29926,54.67030435,21.1217697979
52,"Янтарный городской округ, Калининградская область",6410,54.87933835,19.9495902896
53,"Калининград, Калининградская область",431902,54.7066422,20.5105166
54,"Краснознаменский район, Калининградская область",12905,54.89104995,22.5623963918
55,"Ладушкинский городской округ, Калининградская область",3877,54.58042185,20.1867225632
56,"Мамоновский городской округ, Калининградская область",7957,54.46726135,19.9472446322
57,"Неманский район, Калининградская область",20132,54.942144,21.9592409753
58,"Нестеровский район, Калининградская область",16213,54.54246085,22.5105599647
59,"Озёрский район, Калининградская область",15316,54.44863755,21.9773298226
60,"Пионерский, Калининградская область",11016,54.9482269,20.2259108
61,"Полесский район, Калининградская область",19205,54.85568095,21.2473172476
62,"Правдинский район, Калининградская область",19061,54.45282955,21.2194953843
63,"Славский район, Калининградская область",21015,55.01388245,21.5496767572
64,"Советск, Калининградская область",41705,55.0779939,21.8912498
65,"Светлогорский район, Калининградская область",14875,54.93862795,20.1171446618
66,"Светловский городской округ, Калининградская область",27622,54.7100559,20.2561847235
67,"Зеленоградский район, Калининградская область",32271,54.98647955,20.5645547812
68,"Беломорский район, Республика Карелия",19118,64.2417661,34.8837158899
69,"Калевальский район, Республика Карелия",8321,65.03294825,31.6156447817
70,"Кемский район, Республика Карелия",17756,65.5847612,34.5257389963
71,"Кондопожский район, Республика Карелия",41114,62.4035707,33.8712324445
72,"Костомукшский городской округ, Республика Карелия",28997,64.72880735,30.5326639475
73,"Лахденпохский район, Республика Карелия",14235,61.3970347,30.0951135393
74,"Лоухский район, Республика Карелия",14760,66.08605985,32.3088893294
75,"Медвежьегорский район, Республика Карелия",31864,62.78205575,35.1774873468
76,"Муезерский район, Республика Карелия",12236,63.68537995,31.3070027515
77,"Олонецкий район, Республика Карелия",23124,61.11436235,32.8101902677
78,"Петрозаводск, Республика Карелия",261987,61.7900373,34.3900084
79,"Питкярантский район, Республика Карелия",19895,61.39124,31.7732454765
80,"Прионежский район, Республика Карелия",21502,61.6071774,34.7404074196
81,"Пряжинский район, Республика Карелия",14664,61.68694035,32.9539497882
82,"Пудожский район, Республика Карелия",21659,62.01165645,36.7050750703
83,"Сегежский район, Республика Карелия",41215,63.69403455,34.1591527694
84,"Сортавальский район, Республика Карелия",32287,61.77400225,30.421817836
85,"Суоярвский район, Республика Карелия",18814,62.3288738,31.9894329761
86,"Инта, Республика Коми",35181,66.0397515,60.1315804
87,"Ижемский район, Республика Коми",18771,65.32466875,53.8638927479
88,"Княжпогостский район, Республика Коми",23432,63.3386103,51.5675030898
89,"Койгородский район, Республика Коми",8431,60.37049895,51.3932854022
90,"Корткеросский район, Республика Коми",19658,61.84163145,52.1513594773
91,"Прилузский район, Республика Коми",20737,60.168105,49.3093563634
92,"Район Печора, Республика Коми",57364,65.0204625,57.3740830196
93,"Район Сосногорск, Республика Коми",46775,63.51910005,55.0752753582
94,"Район Вуктыл, Республика Коми",14873,63.8724261,57.737924171
95,"Сыктывдинский район, Республика Коми",22660,61.56779505,50.2618244271
96,"Сыктывкар, Республика Коми",250874,61.6689734,50.834958
97,"Сысольский район, Республика Коми",13956,61.0850999,49.8635524298
98,"Троицко-Печорский район, Республика Коми",13925,62.497201,57.5386849208
99,"Ухта, Республика Коми",121701,63.58317295,53.7205047387
100,"Удорский район, Республика Коми",20400,63.4781503,48.7080178671
101,"Усинск, Республика Коми",47229,65.995731,57.5571267
102,"Усть-Цилемский район, Республика Коми",13036,65.7388049,51.1028850526
103,"Усть-Куломский район, Республика Коми",26858,61.7948519,54.5416584842
104,"Усть-Вымский район, Республика Коми",29474,62.1678237,50.0414930292
105,"Воркута, Республика Коми",95854,67.4949564,64.0400985
106,"Бокситогорский район, Ленинградская область",53842,59.6279023,34.5701913344
107,"Гатчинский район, Ленинградская область",233396,59.3486998,30.1471587833
108,"Кингисеппский район, Ленинградская область",78183,59.6842501,27.8709429855
109,"Киришский район, Ленинградская область",63764,59.44116655,32.1750844819
110,"Кировский район, Ленинградская область",101353,60.5774365,31.4290346686
111,"Лодейнопольский район, Ленинградская область",30469,60.57856505,33.4577421198
112,"Ломоносовский район, Ленинградская область",70347,59.83144315,29.5024465843
113,"Лужский район, Ленинградская область",78759,58.8437782,29.7205291416
114,"Подпорожский район, Ленинградская область",31753,60.774234,34.5315147276
115,"Приозерский район, Ленинградская область",62193,60.8005516,30.3340277981
116,"Сланцевский район, Ленинградская область",43523,59.071439,28.3795904775
117,"Сосновый Бор, Ленинградская область",65788,59.8969501,29.0764927
118,"Тихвинский район, Ленинградская область",70988,59.80312495,33.437565908
119,"Тосненский район, Ленинградская область",122999,59.36872155,31.0562004558
120,"Волховский район, Ленинградская область",95182,60.26589525,32.6814595347
121,"Волосовский район, Ленинградская область",49443,59.35781695,29.3456608235
122,"Всеволожский район, Ленинградская область",260478,60.3572197,30.674567355
123,"Выборгский район, Ленинградская область",204408,60.667992,28.8178268057
124,"Александровск, Мурманская область",42789,69.24464155,33.2701883241
125,"Апатиты, Мурманская область",59674,67.5686257,33.4043924
126,"Кандалакшский район, Мурманская область",49544,67.00936165,31.1255687566
127,"Кировск, Мурманская область",30990,67.62197025,33.6674373977
128,"Кольский район, Мурманская область",44670,68.62906015,31.0605618238
129,"Ковдорский район, Мурманская область",21297,67.5679616,31.1331652388
130,"Ловозерский район, Мурманская область",11820,67.6953626,37.7466418248
131,"Мончегорск, Мурманская область",47975,67.9399017,32.9316797
132,"Мурманск, Мурманская область",307257,68.9706637,33.0749718
133,"Оленегорск, Мурманская область",30021,68.1407351,33.2825946
134,"Островной, Мурманская область",2222,68.05848345,39.49124467
135,"Печенгский район, Мурманская область",38920,69.44025365,30.8532108592
136,"Полярные Зори, Мурманская область",17641,67.3740867,32.4957907
137,"Североморск, Мурманская область",67331,69.0691643,33.4166582
138,"Терский район, Мурманская область",6288,66.6555115,35.8854956163
139,"п. Видяево, Мурманская область",5771,69.3180029,32.8067302
140,"Заозёрск, Мурманская область",11199,69.4009247,32.4413338
141,"Батецкий район, Новгородская область",6335,58.63269905,30.5084767638
142,"Боровичский район, Новгородская область",69365,58.44118285,34.0076410159
143,"Холмский район, Новгородская область",6177,57.1256136,31.2720796747
144,"Хвойнинский район, Новгородская область",15552,58.93379085,34.4058336099
145,"Чудовский район, Новгородская область",22011,59.11977435,31.901444397
146,"Демянский район, Новгородская область",13001,57.7460947,32.3872761083
147,"Крестецкий район, Новгородская область",12940,58.28836705,32.3801005832
148,"Любытинский район, Новгородская область",9744,58.99782395,33.2508076895
149,"Маловишерский район, Новгородская область",17785,58.8103935,32.468591903
150,"Марёвский район, Новгородская область",4673,57.32203885,32.1108714015
151,"Мошенской район, Новгородская область",7309,58.47150645,34.851625573
152,"Новгородский район, Новгородская область",57673,58.441215,31.3916643
153,"Окуловский район, Новгородская область",25808,58.40755895,33.1759593351
154,"Парфинский район, Новгородская область",14395,57.972849,31.8234293172
155,"Пестовский район, Новгородская область",21676,58.63489495,35.6820763616
156,"Поддорский район, Новгородская область",4645,57.4696651,31.0416021727
157,"Шимский район, Новгородская область",11750,58.25418035,30.420116751
158,"Солецкий район, Новгородская область",15714,58.06338115,30.1818057583
159,"Старорусский район, Новгородская область",46872,57.8233728,31.3361787235
160,"Валдайский район, Новгородская область",26476,57.9212741,33.1337385006
161,"Великий Новгород, Новгородская область",218717,58.5211425,31.2752904
162,"Волотовский район, Новгородская область",5493,57.8542359,30.7136916969
163,"Бежаницкий район, Псковская область",13264,57.0212687,30.0400968426
164,"Дедовичский район, Псковская область",14692,57.4690546,29.924817162
165,"Дновский район, Псковская область",13341,57.820507,30.1551948187
166,"Гдовский район, Псковская область",12792,58.60191915,27.9781483817
167,"Красногородский район, Псковская область",7328,56.7854184,28.2208251055
168,"Куньинский район, Псковская область",10277,56.1139515,31.1585856225
169,"Локнянский район, Псковская область",9535,56.87032795,30.3399196617
170,"Невельский район, Псковская область",26657,55.99641665,29.7527849758
171,"Новоржевский район, Псковская область",9334,57.08957015,29.3595456795
172,"Новосокольнический район, Псковская область",14776,56.4228022,30.00605922
173,"Опочецкий район, Псковская область",18673,56.6878973,28.8191066541
174,"Островский район, Псковская область",31096,57.2965992,28.5970635842
175,"Палкинский район, Псковская область",8826,57.50743025,27.9686299394
176,"Печорский район, Псковская область",22123,57.7561364,27.7746558387
177,"Плюсский район, Псковская область",9187,58.55746915,28.8941079363
178,"Порховский район, Псковская область",21568,57.71194565,29.397788316
179,"Псков, Псковская область",203279,57.8173995,28.3343684
180,"Псковский район, Псковская область",34323,57.87767125,28.7143317515
181,"Пушкиногорский район, Псковская область",9253,56.98306725,28.7684130384
182,"Пустошкинский район, Псковская область",9379,56.3447471,29.4563189681
183,"Пыталовский район, Псковская область",12083,57.0879723,27.9283308603
184,"Себежский район, Псковская область",21674,56.2453569,28.6892723301
185,"Струго-Красненский район, Псковская область",13466,58.240666,29.0495411926
186,"Усвятский район, Псковская область",5598,55.79756565,30.7479016018
187,"Великие Луки, Псковская область",98778,56.3423598,30.5279225
188,"Великолукский район, Псковская область",22121,56.3936284,30.5772208523
189,"Бабаевский район, Вологодская область",21944,59.75173835,35.9142171546
190,"Бабушкинский район, Вологодская область",13251,59.6518718,43.7205151734
191,"Белозерский район, Вологодская область",17271,60.1018676,37.2230096961
192,"Чагодощенский район, Вологодская область",13865,59.0439376,35.3716334167
193,"Череповец, Вологодская область",312310,59.1286965,37.9163892
194,"Череповецкий район, Вологодская область",41025,59.11768515,37.4798116787
195,"Харовский район, Вологодская область",16438,60.06145185,40.1361093779
196,"Грязовецкий район, Вологодская область",35778,58.865789,40.4647523494
197,"Кадуйский район, Вологодская область",17109,59.39985425,36.9102101718
198,"Кичменгско-Городецкий район, Вологодская область",18485,60.0057254,46.0563661979
199,"Кирилловский район, Вологодская область",15877,60.13686515,38.5331232908
200,"Междуреченский район, Вологодская область",6112,59.3358684,41.2791485146
201,"Никольский район, Вологодская область",22414,59.5754936,45.4354069359
202,"Нюксенский район, Вологодская область",9777,60.46559855,44.5603850737
203,"Шекснинский район, Вологодская область",33375,59.28499795,38.539851762
204,"Сямженский район, Вологодская область",8929,60.05916315,41.294268967
205,"Сокольский район, Вологодская область",51399,59.5373919,40.8052886634
206,"Тарногский район, Вологодская область",12838,60.60852505,43.5186605178
207,"Тотемский район, Вологодская область",23885,59.7801312,42.348094569
208,"Устюженский район, Вологодская область",18738,58.8453084,36.3859330846
209,"Усть-Кубинский район, Вологодская область",8094,59.88328105,39.453706455
210,"Вашкинский район, Вологодская область",8089,60.3970714,37.7820723916
211,"Великоустюгский район, Вологодская область",57886,60.7152477,46.1003139124
212,"Верховажский район, Вологодская область",13898,60.59573355,42.1476663294
213,"Вологда, Вологодская область",309290,59.2188765,39.8932762
214,"Вологодский район, Вологодская область",50438,59.36791045,39.3999744607
215,"Вожегодский район, Вологодская область",16790,60.48857185,40.2768871
216,"Вытегорский район, Вологодская область",27139,61.0148987,36.9427971993
