,name,pop,lat,lon
0,"Абзелиловский район, Республика Башкортостан",45551,53.3684233,58.5392247236
1,"Агидель, Республика Башкортостан",16370,55.899276,53.9374202
2,"Альшеевский район, Республика Башкортостан",43647,53.97801065,55.0028740648
3,"Архангельский район, Республика Башкортостан",18514,54.5041126,56.8902218427
4,"Аскинский район, Республика Башкортостан",21272,56.1422395,56.5057123483
5,"Аургазинский район, Республика Башкортостан",36970,54.0244945,55.8726769954
6,"Баймакский район, Республика Башкортостан",58572,52.7344849,58.1452466584
7,"Бакалинский район, Республика Башкортостан",28776,55.12710765,53.6630381289
8,"Балтачевский район, Республика Башкортостан",21623,55.9316701,56.0091543016
9,"Белебеевский район, Республика Башкортостан",101896,54.1497633,54.1883325157
10,"Белокатайский район, Республика Башкортостан",20169,55.80411735,58.8275736723
11,"Белорецкий район, Республика Башкортостан",107248,54.04238115,58.2428978229
12,"Бирский район, Республика Башкортостан",61496,55.3714454,55.5502675798
13,"Бижбулякский район, Республика Башкортостан",26080,53.67660285,54.1619415195
14,"Благоварский район, Республика Башкортостан",26004,54.7057863,54.8963434541
15,"Благовещенский район, Республика Башкортостан",49736,55.2301265,56.2504143813
16,"Бураевский район, Республика Башкортостан",25154,55.81539335,55.3374054212
17,"Бурзянский район, Республика Башкортостан",16698,53.2127969,57.4945375983
18,"Буздякский район, Республика Башкортостан",30688,54.651289,54.5023688734
19,"Чекмагушевский район, Республика Башкортостан",30780,55.129877,54.6328711061
20,"Хайбуллинский район, Республика Башкортостан",33398,52.04992445,58.2603782227
21,"Чишминский район, Республика Башкортостан",52344,54.54969545,55.4130259802
22,"Давлекановский район, Республика Башкортостан",42465,54.2480893,55.0419260129
23,"Дюртюлинский район, Республика Башкортостан",64426,55.4945773,54.899165243
24,"Дуванский район, Республика Башкортостан",31068,55.77183505,57.9170872041
25,"Фёдоровский район, Республика Башкортостан",18650,53.1236733,55.2820958324
26,"Гафурийский район, Республика Башкортостан",33869,53.9854674,56.6562993169
27,"Иглинский район, Республика Башкортостан",49675,54.79389875,56.7913682933
28,"Илишевский район, Республика Башкортостан",34654,55.51776045,54.2305373708
29,"Ишимбайский район, Республика Башкортостан",91301,53.4800337,56.5619114719
30,"Янаульский район, Республика Башкортостан",48134,56.2631526,55.0133216523
31,"Ермекеевский район, Республика Башкортостан",17162,54.01729715,53.7020533246
32,"Калтасинский район, Республика Башкортостан",26268,55.94022835,54.8165165381
33,"Караидельский район, Республика Башкортостан",27945,55.76899005,56.9276673181
34,"Кармаскалинский район, Республика Башкортостан",51504,54.3659119,56.0663014797
35,"Кигинский район, Республика Башкортостан",19137,55.4087326,58.8280972657
36,"Краснокамский район, Республика Башкортостан",27986,55.96698855,54.07346094
37,"Кугарчинский район, Республика Башкортостан",31444,52.6167441,56.528296884
38,"Куюргазинский район, Республика Башкортостан",25125,52.65430525,55.808799765
39,"Кумертау, Республика Башкортостан",67078,52.7609767,55.7964823
40,"Кушнаренковский район, Республика Башкортостан",27491,55.0420747,55.3325075188
41,"Мечетлинский район, Республика Башкортостан",25032,55.89310215,58.2825325547
42,"Мелеузовский район, Республика Башкортостан",88549,53.10158605,56.2394920111
43,"Межгорье, Республика Башкортостан",17352,54.235206,57.9584894
44,"Миякинский район, Республика Башкортостан",28224,53.60971985,54.820861907
45,"Мишкинский район, Республика Башкортостан",25318,55.5578529,55.9020803326
46,"Нефтекамск, Республика Башкортостан",133535,56.09923,54.2615113
47,"Нуримановский район, Республика Башкортостан",20824,55.2674791,56.8903050975
48,"Октябрьский, Республика Башкортостан",109474,54.4809722,53.4660062
49,"Салават, Республика Башкортостан",156095,53.3616876,55.9246416
50,"Салаватский район, Республика Башкортостан",26566,55.21838835,58.3358330839
51,"Шаранский район, Республика Башкортостан",22514,54.8598284,53.9585841418
52,"Сибай, Республика Башкортостан",63838,52.7204246,58.6654658
53,"Стерлибашевский район, Республика Башкортостан",20217,53.40619115,55.1799363145
54,"Стерлитамак, Республика Башкортостан",273486,53.6323734,55.9522577
55,"Стерлитамакский район, Республика Башкортостан",40325,53.65529435,55.5824481514
56,"Татышлинский район, Республика Башкортостан",25159,56.26334955,55.777233397
57,"Туймазинский район, Республика Башкортостан",131225,54.5313559,53.9318077995
58,"Учалинский район, Республика Башкортостан",73268,54.37996075,59.3602615389
59,"Уфа, Республика Башкортостан",1071640,54.7262869,55.9477285
60,"Уфимский район, Республика Башкортостан",67067,54.72163465,55.7074276862
61,"Зианчуринский район, Республика Башкортостан",27626,52.005562,56.9032029322
62,"Зилаирский район, Республика Башкортостан",16590,52.49144075,57.2339387372
63,"Алатырь, Чувашская Республика",38203,54.8419041,46.5878356
64,"Алатырский район, Чувашская Республика",17244,54.8660003,46.8781389889
65,"Аликовский район, Чувашская Республика",18282,55.7504382,46.7425969362
66,"Батыревский район, Чувашская Республика",38620,55.0502143,47.4064813516
67,"Чебоксарский район, Чувашская Республика",62920,56.09209495,47.0305239157
68,"Чебоксары, Чувашская Республика",464208,56.1311738,47.2454815
69,"Цивильский район, Чувашская Республика",36772,55.81850745,47.5239843802
70,"Ибресинский район, Чувашская Республика",26192,55.2602042,47.0545535973
71,"Ядринский район, Чувашская Республика",29965,55.9454615,46.3012474893
72,"Яльчикский район, Чувашская Республика",20452,55.1324643,47.8989220027
73,"Янтиковский район, Чувашская Республика",16421,55.4846278,47.8108633442
74,"Канаш, Чувашская Республика",45607,55.5172795,47.4978232
75,"Канашский район, Чувашская Республика",39708,55.52506515,47.3451463453
76,"Комсомольский район, Чувашская Республика",26951,55.23568765,47.5067779524
77,"Козловский район, Чувашская Республика",21649,55.817448,48.086350904
78,"Красноармейский район, Чувашская Республика",16036,55.7749723,47.1768983017
79,"Красночетайский район, Чувашская Республика",16941,55.6687426,46.1143468406
80,"Мариинско-Посадский район, Чувашская Республика",23895,55.9897901,47.7898543342
81,"Моргаушский район, Чувашская Республика",34884,56.02309095,46.7598656744
82,"Новочебоксарск, Чувашская Республика",124392,56.1140023,47.4870341
83,"Порецкий район, Чувашская Республика",13992,55.1763758,46.3976876519
84,"Шемуршинский район, Чувашская Республика",14759,54.8209259,47.2560903946
85,"Шумерлинский район, Чувашская Республика",10765,55.4692449,46.5151608889
86,"Шумерля, Чувашская Республика",31722,55.4985162,46.4186725
87,"Урмарский район, Чувашская Республика",25189,55.66092805,47.8675975226
88,"Вурнарский район, Чувашская Республика",35850,55.5355895,46.964557677
89,"Афанасьевский район, Кировская область",13848,58.90812255,53.3239592317
90,"Арбажский район, Кировская область",7328,57.7891543,48.2836866365
91,"Белохолуницкий район, Кировская область",19890,59.0808658,51.379322002
92,"Богородский район, Кировская область",5015,57.8214217,50.8314167552
93,"Даровской район, Кировская область",11829,59.023081,47.9123923038
94,"Фалёнский район, Кировская область",11138,58.2590156,51.5441010678
95,"Яранский район, Кировская область",26899,57.2112127,47.9760302738
96,"Юрьянский район, Кировская область",20128,58.9918695,49.1177296467
97,"Кикнурский район, Кировская область",9795,57.32873075,47.0822135303
98,"Кильмезский район, Кировская область",13086,57.08278695,50.9275768549
99,"Киров, Кировская область",498381,58.6035257,49.6639029
100,"Кирово-Чепецк, Кировская область",80921,58.5421963,50.0340889
101,"Кирово-Чепецкий район, Кировская область",21317,58.3931001,50.0371907143
102,"Котельнич, Кировская область",24979,58.3053524,48.3372596
103,"Котельничский район, Кировская область",15799,58.3010505,48.090157393
104,"Кумёнский район, Кировская область",17350,58.138503,49.9860070503
105,"Лебяжский район, Кировская область",8700,57.2765323,49.492263724
106,"Лузский район, Кировская область",18688,60.63727305,47.759220218
107,"Малмыжский район, Кировская область",26757,56.57794545,50.8082586551
108,"Мурашинский район, Кировская область",12905,59.3090449,48.8479603251
109,"Нагорский район, Кировская область",10336,59.5520368,50.6631901356
110,"Немский район, Кировская область",7983,57.5195224,50.6175725061
111,"Нолинский район, Кировская область",20868,57.58557515,49.7508249068
112,"Омутнинский район, Кировская область",44793,58.80055125,52.1739444309
113,"Опаринский район, Кировская область",11795,59.8075065,47.7228484277
114,"Оричевский район, Кировская область",30781,58.31432755,49.0481781106
115,"Орловский район, Кировская область",12934,58.70768455,48.800305458
116,"Первомайский, Кировская область",6147,59.0655436,49.2505368
117,"Пижанский район, Кировская область",11242,57.38850845,48.4917171634
118,"Подосиновский район, Кировская область",17009,60.26821145,47.4922160199
119,"Шабалинский район, Кировская область",10854,58.39863755,46.949862448
120,"Санчурский район, Кировская область",10080,57.00556745,47.1968166294
121,"Слободской, Кировская область",34460,58.7277816,50.1771234
122,"Слободской район, Кировская область",30174,58.908114,50.0735902019
123,"Советский район, Кировская область",27302,57.48126755,48.965846088
124,"Сунский район, Кировская область",6784,57.8772598,50.0108919595
125,"Свечинский район, Кировская область",8517,58.3525355,47.6644589551
126,"Тужинский район, Кировская область",7688,57.6455603,47.7887584275
127,"Унинский район, Кировская область",9178,57.6464184,51.3654125543
128,"Уржумский район, Кировская область",27075,57.08699895,50.037224987
129,"Верхнекамский район, Кировская область",32669,59.71561565,52.6524588795
130,"Верхошижемский район, Кировская область",9483,57.9933397,49.0824655088
131,"Вятские Поляны, Кировская область",35162,56.2240415,51.0672657
132,"Вятскополянский район, Кировская область",30659,56.2529912,51.2305104607
133,"Зуевский район, Кировская область",22586,58.33763705,51.0493344923
134,"Горномарийский район, Республика Марий Эл",25869,56.3271168,46.6541200662
135,"Йошкар-Ола, Республика Марий Эл",259256,56.6327144,47.8953961
136,"Юринский район, Республика Марий Эл",8758,56.540337,45.9786337409
137,"Килемарский район, Республика Марий Эл",13604,56.5872884,47.0216901988
138,"Козьмодемьянск, Республика Марий Эл",21257,56.3324346,46.5462855
139,"Куженерский район, Республика Марий Эл",14556,56.75830325,48.9451257393
140,"Мари-Турекский район, Республика Марий Эл",23155,56.748691,49.8435372389
141,"Медведевский район, Республика Марий Эл",67703,56.62416975,47.5066054722
142,"Моркинский район, Республика Марий Эл",32403,56.42727645,48.9230441499
143,"Новоторъяльский район, Республика Марий Эл",17124,57.02482355,48.5854264556
144,"Оршанский район, Республика Марий Эл",15139,56.9394744,47.9649756359
145,"Параньгинский район, Республика Марий Эл",16307,56.7319462,49.4115849914
146,"Сернурский район, Республика Марий Эл",25672,57.0915339,49.0892008536
147,"Советский район, Республика Марий Эл",31081,56.7096376,48.4914530465
148,"Волжск, Республика Марий Эл",55659,55.8636579,48.3618598
149,"Волжский район, Республика Марий Эл",23940,56.0190524,48.5098928055
150,"Звениговский район, Республика Марий Эл",44976,56.1936422,47.9746874114
151,"Ардатовский район, Республика Мордовия",29446,54.8550725,46.1088532191
152,"Атяшевский район, Республика Мордовия",20161,54.6334846,45.9711472464
153,"Атюрьевский район, Республика Мордовия",10952,54.3429795,43.2785199415
154,"Большеберезниковский район, Республика Мордовия",14072,54.1989629,45.9636274141
155,"Большеигнатовский район, Республика Мордовия",8313,54.99500665,45.5714311801
156,"Чамзинский район, Республика Мордовия",31639,54.4314262,45.8089700204
157,"Дубенский район, Республика Мордовия",13851,54.3781891,46.0902363
158,"Ичалковский район, Республика Мордовия",20582,54.70379355,45.369259515
159,"Инсарский район, Республика Мордовия",14098,53.81584865,44.383818275
160,"Ельниковский район, Республика Мордовия",11995,54.65052605,43.8465315256
161,"Кадошкинский район, Республика Мордовия",7970,54.094412,44.412720203
162,"Кочкуровский район, Республика Мордовия",10794,54.02705805,45.4022819452
163,"Ковылкинский район, Республика Мордовия",43870,54.03703965,43.8554719969
164,"Краснослободский район, Республика Мордовия",26406,54.40349355,43.8737500769
165,"Лямбирский район, Республика Мордовия",34142,54.2990554,45.1338421721
166,"Ромодановский район, Республика Мордовия",20702,54.424139,45.2950247885
167,"Рузаевский район, Республика Мордовия",66382,54.0820336,44.793548626
168,"Саранск, Республика Мордовия",324973,54.1867088,45.1838307
169,"Старошайговский район, Республика Мордовия",14071,54.3755165,44.6265189672
170,"Темниковский район, Республика Мордовия",17261,54.6717638,43.2758321993
171,"Теньгушевский район, Республика Мордовия",12340,54.670838,42.7871709676
172,"Торбеевский район, Республика Мордовия",21479,54.1595219,43.2682115348
173,"Зубово-Полянский район, Республика Мордовия",59256,54.12178755,42.7384127678
174,"Ардатовский район, Нижегородская область",26428,55.329637,43.1582671724
175,"Арзамас, Нижегородская область",106362,55.3989463,43.8408129
176,"Арзамасский район, Нижегородская область",43723,55.44847575,43.7087892155
177,"Балахнинский район, Нижегородская область",77598,56.48769245,43.3600957506
178,"Богородский район, Нижегородская область",65677,55.98853875,43.6494602871
179,"Большеболдинский район, Нижегородская область",12035,54.99867075,45.2370578364
180,"Большемурашкинский район, Нижегородская область",10508,55.7854035,44.7236090984
181,"Бор, Нижегородская область",121023,56.3547288,44.0796689
182,"Бутурлинский район, Нижегородская область",14471,55.51733645,44.909960421
183,"Чкаловский район, Нижегородская область",21963,56.6893001,43.0627606798
184,"Дальнеконстантиновский район, Нижегородская область",22474,55.86559485,44.1134228668
185,"Дивеевский район, Нижегородская область",16618,55.08281905,43.365353019
186,"Дзержинск, Нижегородская область",251016,56.2382157,43.4617405
187,"Гагинский район, Нижегородская область",12444,55.23656775,45.0248111028
188,"Городецкий район, Нижегородская область",91577,56.71154095,43.552742128
189,"Княгининский район, Нижегородская область",11922,55.78387365,45.1306634727
190,"Ковернинский район, Нижегородская область",19951,57.17911955,43.8501824387
191,"Краснобаковский район, Нижегородская область",22524,57.14949505,45.1813628409
192,"Краснооктябрьский район, Нижегородская область",11729,55.28256255,45.5286016555
193,"Кстовский район, Нижегородская область",112823,56.0860662,44.2546748905
194,"Кулебакский район, Нижегородская область",52377,55.3326974,42.3675222
195,"Лукояновский район, Нижегородская область",32384,54.91043425,44.4281785745
196,"Лысковский район, Нижегородская область",39964,56.1625677,45.1680902851
197,"Навашинский район, Нижегородская область",24296,55.60244725,42.5158816292
198,"Нижний Новгород, Нижегородская область",1259738,56.3278821,44.0072897
199,"Павловский район, Нижегородская область",100960,56.0165106,43.0229402471
200,"Перевозский район, Нижегородская область",16519,55.5994169,44.5423053395
201,"Первомайск, Нижегородская область",20455,54.865754,43.8050623
202,"Пильнинский район, Нижегородская область",21960,55.63336645,45.8486448722
203,"Починковский район, Нижегородская область",30668,54.6962115,44.6823645234
204,"Шахунья, Нижегородская область",39625,57.6731073,46.6160494
205,"Шарангский район, Нижегородская область",12450,57.1116178,46.4296753051
206,"Саров, Нижегородская область",92047,54.9346302,43.3346076
207,"Шатковский район, Нижегородская область",27018,55.20075945,44.2310881563
208,"Сеченовский район, Нижегородская область",15446,55.21060005,45.8385633189
209,"Семеновский городской округ, Нижегородская область",49152,56.9718902,44.044045
210,"Сергачский район, Нижегородская область",31296,55.56194625,45.3590019259
211,"Сокольский район, Нижегородская область",14139,57.2131325,43.3311570774
212,"Сосновский район, Нижегородская область",19546,55.74319525,43.2628471806
213,"Спасский район, Нижегородская область",10998,55.8672444,45.6227972057
214,"Тонкинский район, Нижегородская область",9007,57.3327475,46.28963453
215,"Тоншаевский район, Нижегородская область",20219,57.7555739,47.200563518
216,"Уренский район, Нижегородская область",30106,57.4780388,45.7874969703
217,"Вачский район, Нижегородская область",19979,55.8022416,42.6413675998
218,"Вадский район, Нижегородская область",15626,55.50152055,44.2015428767
219,"Варнавинский район, Нижегородская область",13366,57.5121027,44.8410821711
220,"Ветлужский район, Нижегородская область",16330,57.82431405,45.5376508871
221,"Володарский район, Нижегородская область",58807,56.3362236,43.0097733052
222,"Воротынский район, Нижегородская область",19411,56.16793435,45.7085110863
223,"Воскресенский район, Нижегородская область",21645,56.8195004,45.4151566327
224,"Вознесенский район, Нижегородская область",17352,54.92168985,42.856807389
225,"Выкса, Нижегородская область",84845,55.3205256,42.17018
226,"Абдулинский район, Оренбургская область",30546,53.7408921,53.4537484773
227,"Адамовский район, Оренбургская область",26079,51.61663805,59.9968110422
228,"Акбулакский район, Оренбургская область",25606,50.98836055,55.8837385789
229,"Александровский район, Оренбургская область",15702,52.63863365,54.4159896643
230,"Асекеевский район, Оренбургская область",21050,53.4566746,52.9237692749
231,"Беляевский район, Оренбургская область",17074,51.3219062,56.4159321746
232,"Бугуруслан, Оренбургская область",50226,53.6208,52.417
233,"Бугурусланский район, Оренбургская область",19680,53.6400029,52.5942796063
234,"Бузулук, Оренбургская область",82904,52.7885,52.2539
235,"Бузулукский район, Оренбургская область",31071,52.92171705,52.2600285937
236,"Домбаровский район, Оренбургская область",15994,50.8369817,59.2263585553
237,"Гай, Оренбургская область",38925,51.4714422,58.4405186
238,"Гайский район, Оренбургская область",10331,51.4813382,58.4504951348
239,"Грачёвский район, Оренбургская область",13495,52.9782963,52.9181750111
240,"Илекский район, Оренбургская область",25150,51.4659082,53.9100124679
241,"Ясненский район, Оренбургская область",22406,51.0867861,59.890463631
242,"Комаровский, Оренбургская область",8064,51.0252724,59.8675148
243,"Красногвардейский район, Оренбургская область",21097,52.84041185,53.5477896315
244,"Курманаевский район, Оренбургская область",17705,52.3846518,51.8070352851
245,"Кувандыкский район, Оренбургская область",45714,51.37264755,57.2180213024
246,"Кваркенский район, Оренбургская область",18655,52.1192107,59.3000186236
247,"Матвеевский район, Оренбургская область",12267,53.37465185,53.5205785912
248,"Медногорск, Оренбургская область",29120,51.4050087,57.5800751
249,"Новоорский район, Оренбургская область",29428,51.4635875,59.0440437269
250,"Новосергиевский район, Оренбургская область",36322,52.23166015,53.8869047635
251,"Новотроицк, Оренбургская область",105367,51.19637,58.2985273
252,"Октябрьский район, Оренбургская область",20018,52.38856265,55.1471272259
253,"Оренбург, Оренбургская область",563876,51.7674507,55.0971196
254,"Оренбургский район, Оренбургская область",74404,51.7272468,54.8201620818
255,"Орск, Оренбургская область",244004,51.2305015,58.4738015
256,"Переволоцкий район, Оренбургская область",28345,52.0092304,54.3130111634
257,"Первомайский район, Оренбургская область",25626,51.83760125,51.589070663
258,"Пономарёвский район, Оренбургская область",15463,53.2114827,54.2135413724
259,"Сакмарский район, Оренбургская область",29179,52.08000775,55.4163763171
260,"Саракташский район, Оренбургская область",40145,51.8520231,56.211606802
261,"Шарлыкский район, Оренбургская область",18032,52.9107445,54.7408520703
262,"Северный район, Оренбургская область",15012,54.12073795,52.7377737218
263,"Соль-Илецкий район, Оренбургская область",53801,51.0150626,55.0097667087
264,"Сорочинск, Оренбургская область",29249,52.4269717,53.1541763
265,"Сорочинский район, Оренбургская область",14192,52.4257432,53.2534878367
266,"Светлинский район, Оренбургская область",13876,51.07021025,61.0113081791
267,"Ташлинский район, Оренбургская область",25281,51.80818925,52.7431483053
268,"Тюльганский район, Оренбургская область",19725,52.38552875,56.1432332653
269,"Тоцкий район, Оренбургская область",32866,52.3116567,52.5239478948
270,"Башмаковский район, Пензенская область",23304,53.2524374,42.8310656907
271,"Бековский район, Пензенская область",17531,52.57037585,43.7216688297
272,"Белинский район, Пензенская область",28881,52.97455175,43.327530775
273,"Бессоновский район, Пензенская область",45296,53.3175854,45.1391001986
274,"Городищенский район, Пензенская область",52480,53.2304321,45.7257004006
275,"Иссинский район, Пензенская область",11157,53.81131485,44.8772687791
276,"Каменский район, Пензенская область",62322,53.0974298,44.0855617173
277,"Камешкирский район, Пензенская область",12802,52.8032324,46.0693874931
278,"Колышлейский район, Пензенская область",26187,52.7271773,44.5090600734
279,"Кузнецк, Пензенская область",88839,53.112514,46.6007257
280,"Кузнецкий район, Пензенская область",38056,53.11865845,46.3343353501
281,"Лопатинский район, Пензенская область",14942,52.58147605,45.7233324944
282,"Лунинский район, Пензенская область",19944,53.656802,45.1752374458
283,"Малосердобинский район, Пензенская область",9824,52.50181845,45.0158158539
284,"Мокшанский район, Пензенская область",28033,53.44638575,44.4878555462
285,"Наровчатский район, Пензенская область",12069,53.84055,43.6869433353
286,"Неверкинский район, Пензенская область",16329,52.7787253,46.6901520004
287,"Никольский район, Пензенская область",34271,53.749117,45.8915154328
288,"Нижнеломовский район, Пензенская область",41974,53.5427829,43.6467365676
289,"Пачелмский район, Пензенская область",16310,53.32534915,43.479003853
290,"Пенза, Пензенская область",517311,53.2,45
291,"Пензенский район, Пензенская область",51308,52.9744918,44.8696113795
292,"Шемышейский район, Пензенская область",17661,52.8403735,45.4919119692
293,"Сердобский район, Пензенская область",54520,52.563163,44.2184561342
294,"Сосновоборский район, Пензенская область",17242,53.33487815,46.3174538169
295,"Спасский район, Пензенская область",13008,53.83798945,43.316292282
296,"Тамалинский район, Пензенская область",16503,52.6013683,43.3303134197
297,"Вадинский район, Пензенская область",9807,53.6485133,43.0547463312
298,"Заречный, Пензенская область",63601,53.1960137,45.1692751
299,"Земетчинский район, Пензенская область",24674,53.59082095,42.492530309
300,"Александровский район, Пермский край",31477,59.3834653,57.8744921779
301,"Бардымский район, Пермский край",25538,56.88807455,55.6950214527
302,"Березники, Пермский край",156466,59.4084171,56.8036958
303,"Берёзовский район, Пермский край",17042,57.6475844,57.5771726936
304,"Большесосновский район, Пермский край",13215,57.5399348,54.459215478
305,"Чайковский район, Пермский край",103849,56.6686565,54.3798039806
306,"Частинский район, Пермский край",12817,57.29402495,54.8235866359
307,"Чердынский район, Пермский край",24568,60.6795609,56.1479829302
308,"Чернушинский район, Пермский край",50593,56.53103995,56.1258085688
309,"Чусовской район, Пермский край",71187,58.339391,57.5460488296
310,"Добрянский район, Пермский край",57010,58.5986127,56.6885180416
311,"Гайнский район, Пермский край",13802,60.52594835,53.6041323382
312,"Горнозаводский район, Пермский край",26044,58.62410085,58.6652249645
313,"Гремячинский район, Пермский край",13953,58.76293475,57.9290667364
314,"Губаха, Пермский край",38996,58.8424058,57.5550579
315,"Ильинский район, Пермский край",19634,58.63258375,55.7157600649
316,"Еловский район, Пермский край",10743,56.94591915,54.9130436238
317,"Юрлинский район, Пермский край",9609,59.43155465,54.2739755932
318,"Юсьвинский район, Пермский край",19558,59.0558408,55.5507961405
319,"Карагайский район, Пермский край",22875,58.45579545,55.0470206121
320,"Кишертский район, Пермский край",12777,57.3386665,57.5436516155
321,"Кизеловский район, Пермский край",25065,59.0934193,58.0460680153
322,"Кочёвский район, Пермский край",11167,59.7435792,54.1309772761
323,"Косинский район, Пермский край",7246,59.86702175,54.9085918806
324,"Краснокамский район, Пермский край",70272,58.1678647,55.9662255918
325,"Красновишерский район, Пермский край",22554,60.7319546,58.9120141815
326,"Кудымкар, Пермский край",28967,59.0146073,54.6641362
327,"Кудымкарский район, Пермский край",25808,59.06493635,54.4006939217
328,"Куединский район, Пермский край",26952,56.5527937,55.1630960017
329,"Кунгур, Пермский край",66074,57.4288428,56.9443291
330,"Кунгурский район, Пермский край",42450,57.5371555,56.6518029611
331,"Лысьвенский городской округ, Пермский край",78190,57.91080145,57.9594649652
332,"Нытвенский район, Пермский край",43812,58.10819035,55.3083836389
333,"Очёрский район, Пермский край",22828,57.89622705,54.5541197422
334,"Оханский район, Пермский край",16272,57.65170025,55.140634511
335,"Октябрьский район, Пермский край",30441,56.4982871,56.9277233822
336,"Ординский район, Пермский край",15605,57.06537415,56.7539197664
337,"Осинский район, Пермский край",29513,57.284883,55.4493964378
338,"Пермский городской округ, Пермский край",991170,58.0230679,56.232803119
339,"Пермский район, Пермский край",103444,57.76452855,55.8518979148
340,"Сивинский район, Пермский край",14843,58.4696747,54.2508650322
341,"Соликамск, Пермский край",97384,59.6493514,56.7794344
342,"Соликамский район, Пермский край",17165,59.84014955,56.6063363899
343,"Суксунский район, Пермский край",20099,57.0577909,57.5474728422
344,"Уинский район, Пермский край",11440,56.8635887,56.5486463499
345,"Усольский район, Пермский край",14232,59.3682797,56.0925641038
346,"Верещагинский район, Пермский край",41379,58.12193695,54.473021966
347,"Звёздный, Пермский край",9151,57.7355107,56.3098753187
348,"Алексеевский район, Самарская область",12274,52.61476655,51.1181089143
349,"Безенчукский район, Самарская область",42095,52.98936245,49.2578127993
350,"Богатовский район, Самарская область",14142,53.0599831,51.3007492083
351,"Большечерниговский район, Самарская область",19153,52.0570568,50.760563154
352,"Большеглушицкий район, Самарская область",20477,52.44451825,50.5480932938
353,"Борский район, Самарская область",24433,52.9845388,51.7711204893
354,"Чапаевск, Самарская область",72705,52.9812841,49.7111947
355,"Челно-Вершинский район, Самарская область",16954,54.41526085,51.1415747412
356,"Хворостянский район, Самарская область",16302,52.64010695,49.0346908094
357,"Исаклинский район, Самарская область",13395,53.99384405,51.6345291336
358,"Елховский район, Самарская область",10046,53.9129714,50.2656856422
359,"Камышлинский район, Самарская область",11420,54.0672668,52.1760162904
360,"Кинель, Самарская область",54890,53.2197361,50.6332267
361,"Кинель-Черкасский район, Самарская область",47362,53.4466398,51.4041032132
362,"Кинельский район, Самарская область",33258,53.1768017,50.9410780535
363,"Клявлинский район, Самарская область",15988,54.2752492,52.0620383334
364,"Кошкинский район, Самарская область",24194,54.25874235,50.5001005771
365,"Красноармейский район, Самарская область",18050,52.70194905,49.9236223746
366,"Красноярский район, Самарская область",54497,53.57205115,50.3653105351
367,"Нефтегорский район, Самарская область",34478,52.78990725,50.9306613587
368,"Новокуйбышевск, Самарская область",110729,53.0992438,49.9483631
369,"Октябрьск, Самарская область",27244,53.1641499,48.6712628
370,"Отрадный, Самарская область",48356,53.37924125,51.3429777156
371,"Пестравский район, Самарская область",17779,52.3918197,49.8551831964
372,"Похвистнево, Самарская область",29261,53.6467978,52.1233442
373,"Похвистневский район, Самарская область",29027,53.7017577,51.9051708403
374,"Приволжский район, Самарская область",24005,52.95086005,48.7084277981
375,"Самара, Самарская область",1164814,53.1986275,50.113988
376,"Шенталинский район, Самарская область",16656,54.42846185,51.6112297456
377,"Сергиевский район, Самарская область",47548,53.94999885,51.0619837893
378,"Шигонский район, Самарская область",21002,53.5209095,48.687490961
379,"Ставропольский район, Самарская область",54181,53.4995586,49.6856752315
380,"Сызрань, Самарская область",179558,53.1469334,48.4548595
381,"Сызранский район, Самарская область",25947,53.21658115,48.5531724709
382,"Тольятти, Самарская область",719632,53.514949,49.4075734
383,"Волжский район, Самарская область",83377,53.1227159,50.4356353957
384,"Жигулёвск, Самарская область",60303,53.400153,49.4954228
385,"Александрово-Гайский район, Саратовская область",16855,50.1513467,48.5310212421
386,"Аркадакский район, Саратовская область",26236,51.8939515,43.6566346792
387,"Аткарский район, Саратовская область",42174,51.90753325,45.0536563439
388,"Балаковский район, Саратовская область",220598,51.94317715,47.873943835
389,"Балашовский район, Саратовская область",113352,51.4894518,43.1558705383
390,"Балтайский район, Саратовская область",12282,52.4770553,46.6571404908
391,"Базарно-Карабулакский район, Саратовская область",31841,52.2738121,46.4226926438
392,"Хвалынский район, Саратовская область",23887,52.5261602,47.8828185191
393,"Дергачёвский район, Саратовская область",21104,51.1796387,48.9863501779
394,"Духовницкий район, Саратовская область",12951,52.3995097,48.3944985922
395,"Энгельсский район, Саратовская область",285019,51.3660554,46.284115148
396,"Фёдоровский район, Саратовская область",20876,51.23718765,47.5412903068
397,"Ивантеевский район, Саратовская область",15186,52.2585988,49.2521157028
398,"Екатериновский район, Саратовская область",19798,52.12497165,44.4394790601
399,"Ершовский район, Саратовская область",41609,51.33181065,48.3506769864
400,"Калининский район, Саратовская область",33302,51.4460168,44.2467507658
401,"Красноармейский район, Саратовская область",48739,50.89479335,45.6854179214
402,"Краснокутский район, Саратовская область",34676,50.8652105,46.967590546
403,"Краснопартизанский район, Саратовская область",13008,51.70569785,48.763421952
404,"Лысогорский район, Саратовская область",19948,51.3970091,45.0722241604
405,"Марксовский район, Саратовская область",65250,51.6884402,47.0144869842
406,"пос. Михайловский, Саратовская область",2328,51.7942256,48.4393625
407,"Новобурасский район, Саратовская область",16359,52.1199783,45.8975536829
408,"Новоузенский район, Саратовская область",32248,50.49349335,47.988665899
409,"Озинский район, Саратовская область",19147,51.35747785,49.8156556288
410,"Перелюбский район, Саратовская область",14747,51.86250085,50.1736727842
411,"Петровский район, Саратовская область",45698,52.2283922,45.339378483
412,"Питерский район, Саратовская область",18054,50.6839799,47.5143195737
413,"Пугачёвский район, Саратовская область",61738,51.9722272,49.1209197042
414,"Романовский район, Саратовская область",16226,51.78046075,42.8450392383
415,"Ровенский район, Саратовская область",16654,50.8628671,46.3359263737
416,"Ртищевский район, Саратовская область",58672,52.2129219,43.8219837377
417,"Самойловский район, Саратовская область",21451,51.2502518,43.7082218792
418,"Саратов, Саратовская область",837900,51.530018,46.0346846
419,"Саратовский район, Саратовская область",48105,51.5439523,45.7823681341
420,"Шиханы, Саратовская область",6067,52.1148389,47.1984743
421,"Советский район, Саратовская область",28012,51.2646235,46.9087836913
422,"Светлый, Саратовская область",12493,51.6737086,45.6227753
423,"Татищевский район, Саратовская область",28405,51.78907515,45.6195941567
424,"Турковский район, Саратовская область",12834,52.1095599,43.0359033573
425,"Вольский район, Саратовская область",93965,52.2742827,47.3230115243
426,"Воскресенский район, Саратовская область",12098,51.929021,46.6963902161
427,"Агрызский район, Республика Татарстан",36626,56.19275175,53.4418330014
428,"Аксубаевский район, Республика Татарстан",32161,54.850132,50.9419062521
429,"Актанышский район, Республика Татарстан",31971,55.6373367,53.8439792132
430,"Алексеевский район, Республика Татарстан",26236,55.13930695,50.0391400524
431,"Алькеевский район, Республика Татарстан",19991,54.7809174,49.9146203106
432,"Альметьевский район, Республика Татарстан",197493,54.955032,52.1093110517
433,"Апастовский район, Республика Татарстан",21627,55.2666325,48.3873639237
434,"Арский район, Республика Татарстан",51667,56.2236545,49.9271614665
435,"Атнинский район, Республика Татарстан",13650,56.28410465,49.4056495347
436,"Азнакаевский район, Республика Татарстан",64547,54.91572995,53.0987600517
437,"Балтасинский район, Республика Татарстан",33879,56.4533442,50.2798635739
438,"Бавлинский район, Республика Татарстан",36270,54.27309625,53.2820120639
439,"Бугульминский район, Республика Татарстан",111465,54.53430535,52.8394409912
440,"Буинский район, Республика Татарстан",45453,54.97396165,48.212010727
441,"Черемшанский район, Республика Татарстан",20361,54.76038705,51.4810280733
442,"Чистопольский район, Республика Татарстан",80169,55.26384195,50.6813293218
443,"Дрожжановский район, Республика Татарстан",25753,54.70168515,47.4940565966
444,"Елабужский район, Республика Татарстан",81632,55.78421975,51.897624727
445,"Ютазинский район, Республика Татарстан",21615,54.64450645,53.3255502019
446,"Кайбицкий район, Республика Татарстан",14898,55.37406135,48.1425216997
447,"Камско-Устьинский район, Республика Татарстан",16904,55.2780017,48.9795929693
448,"Казань, Республика Татарстан",1143535,55.76041925,49.1902944738
449,"Кукморский район, Республика Татарстан",52021,56.15027845,50.771266277
450,"Лаишевский район, Республика Татарстан",36516,55.4559723,49.4373119366
451,"Лениногорский район, Республика Татарстан",86827,54.5865194,52.1982665914
452,"Мамадышский район, Республика Татарстан",45005,55.7607208,51.0820214322
453,"Менделеевский район, Республика Татарстан",30377,55.943692,52.4052407553
454,"Мензелинский район, Республика Татарстан",29359,55.65495885,53.0710953451
455,"Муслюмовский район, Республика Татарстан",21884,55.3111303,53.292689964
456,"Набережные Челны, Республика Татарстан",513193,55.7420117,52.3992173
457,"Нижнекамский район, Республика Татарстан",272023,55.42925015,51.5392343811
458,"Новошешминский район, Республика Татарстан",14179,55.0593314,51.1405554387
459,"Нурлатский район, Республика Татарстан",60120,54.60800805,50.597421311
460,"Пестречинский район, Республика Татарстан",29023,55.7802463,49.7298316735
461,"Рыбно-Слободский район, Республика Татарстан",27630,55.5829333,50.3055095092
462,"Сабинский район, Республика Татарстан",31038,56.01295005,50.430516645
463,"Сармановский район, Республика Татарстан",36681,55.2587951,52.6385054135
464,"Спасский район, Республика Татарстан",20554,54.9000391,49.2356487047
465,"Тетюшский район, Республика Татарстан",24875,54.89379315,48.7345562915
466,"Тюлячинский район, Республика Татарстан",14273,55.84203265,50.2298114386
467,"Тукаевский район, Республика Татарстан",36561,55.6821412,52.0906916139
468,"Верхнеуслонский район, Республика Татарстан",16641,55.56410985,48.7385153848
469,"Высокогорский район, Республика Татарстан",43207,56.10417995,49.1361088965
470,"Заинский район, Республика Татарстан",58046,55.27899445,52.0812557572
471,"Зеленодольский район, Республика Татарстан",158552,55.78166555,48.541309508
472,"Алнашский район, Удмуртская Республика",20403,56.1743579,52.5111092205
473,"Балезинский район, Удмуртская Республика",34617,58.11866475,53.259731247
474,"Дебёсский район, Удмуртская Республика",12665,57.6192891,53.7929592232
475,"Глазов, Удмуртская Республика",95854,58.1400326,52.6464783
476,"Глазовский район, Удмуртская Республика",17132,58.19836335,52.7594205356
477,"Граховский район, Удмуртская Республика",9354,56.0690319,51.943739905
478,"Игринский район, Удмуртская Республика",38194,57.52846965,53.0561080734
479,"Ижевск, Удмуртская Республика",627734,56.85973395,53.1975006325
480,"Якшур-Бодьинский район, Удмуртская Республика",21467,57.18776675,53.1268238811
481,"Ярский район, Удмуртская Республика",15286,58.2440585,52.0585416343
482,"Юкаменский район, Удмуртская Республика",10207,57.9302838,52.1859828607
483,"Камбарский район, Удмуртская Республика",18106,56.3467099,54.2101005147
484,"Каракулинский район, Удмуртская Республика",12230,56.04046635,53.6587572705
485,"Кезский район, Удмуртская Республика",22911,58.07356705,53.6888403054
486,"Киясовский район, Удмуртская Республика",10305,56.2735515,53.1937175552
487,"Кизнерский район, Удмуртская Республика",20263,56.29584585,51.6185977431
488,"Красногорский район, Удмуртская Республика",10347,57.662381,52.3539625191
489,"Малопургинский район, Удмуртская Республика",33058,56.54917935,53.0054752108
490,"Можга, Удмуртская Республика",47961,56.4436551,52.2180733
491,"Можгинский район, Удмуртская Республика",28293,56.4512728,52.4362045929
492,"Сарапул, Удмуртская Республика",101381,56.477334,53.8192957
493,"Сарапульский район, Удмуртская Республика",24625,56.4635605,53.5399895418
494,"Шарканский район, Удмуртская Республика",19100,57.327392,53.793872839
495,"Селтинский район, Удмуртская Республика",11368,57.3581188,51.9208362327
496,"Сюмсинский район, Удмуртская Республика",13401,57.1642705,51.5232454994
497,"Увинский район, Удмуртская Республика",39671,56.96353395,52.297981169
498,"Вавожский район, Удмуртская Республика",16351,56.7591038,51.8036667401
499,"Воткинск, Удмуртская Республика",99022,57.0525057,53.9906132
500,"Воткинский район, Удмуртская Республика",24114,57.03463015,54.2282613129
501,"Завьяловский район, Удмуртская Республика",66000,56.8028161,53.5591437498
502,"Барышский район, Ульяновская область",44034,53.60275465,47.0198001798
503,"Базарносызганский район, Ульяновская область",10083,53.68169095,46.739085811
504,"Чердаклинский район, Ульяновская область",41449,54.25126075,48.8042064728
505,"Цильнинский район, Ульяновская область",27543,54.5559383,47.9448547449
506,"Димитровград, Ульяновская область",122580,54.2188995,49.6038982
507,"Инзенский район, Ульяновская область",33877,53.9250887,46.4621699497
508,"Карсунский район, Ульяновская область",25170,54.22398535,46.9324835374
509,"Кузоватовский район, Ульяновская область",22377,53.67469495,47.772468367
510,"Майнский район, Ульяновская область",25826,54.1686558,47.6180105167
511,"Мелекесский район, Ульяновская область",36718,54.19071425,49.2701259285
512,"Николаевский район, Ульяновская область",27211,53.1039795,47.2565167811
513,"Новомалыклинский район, Ульяновская область",15379,54.2341548,50.0309621631
514,"Новоспасский район, Ульяновская область",22478,53.16836245,47.8634989983
515,"Новоульяновск, Ульяновская область",20333,54.1464093,48.3916541
516,"Павловский район, Ульяновская область",15109,52.7252994,47.0919061109
517,"Радищевский район, Ульяновская область",14284,52.9133144,48.1237918807
518,"Сенгилеевский район, Ульяновская область",23260,53.9147774,48.7191704085
519,"Старокулаткинский район, Ульяновская область",14731,52.7627355,47.4949158419
520,"Старомайнский район, Ульяновская область",18132,54.62357965,49.0958253186
521,"Сурский район, Ульяновская область",19430,54.56510545,46.9342795089
522,"Тереньгульский район, Ульяновская область",18761,53.76509575,48.2046663601
523,"Ульяновск, Ульяновская область",637564,54.3107593,48.3642771
524,"Ульяновский район, Ульяновская область",36669,54.36599585,48.0660272126
525,"Вешкаймский район, Ульяновская область",19801,54.0057327,47.0935552147
