,name,pop,lat,lon
0,"Autauga, Alabama",55395,32.5165255,-86.6319403
1,"Baldwin, Alabama",200111,30.5677527,-87.7324392
2,"Barbour, Alabama",26887,31.8589311,-85.4032078
3,"Bibb, Alabama",22506,32.971079,-87.1227088
4,"Blount, Alabama",57719,33.9510169,-86.5702002
5,"Bullock, Alabama",10764,32.09929,-85.7091657
6,"Butler, Alabama",20296,31.7340713,-86.6754793
7,"Calhoun, Alabama",115916,33.7514505,-85.8315666
8,"Chambers, Alabama",34076,32.8901658,-85.3866953
9,"Cherokee, Alabama",26037,34.1142554,-85.6004514
10,"Chilton, Alabama",43931,32.8522565,-86.7032845
11,"Choctaw, Alabama",13323,31.9908095,-88.2821326
12,"Clarke, Alabama",24945,31.659134,-87.8192486
13,"Clay, Alabama",13552,33.2423393,-85.819651
14,"Cleburne, Alabama",15080,33.6506958,-85.5017359
15,"Coffee, Alabama",50909,31.3629619,-85.9870669
16,"Colbert, Alabama",54543,34.6473396,-87.7921769
17,"Conecuh, Alabama",12670,31.3966783,-86.9437104
18,"Coosa, Alabama",10886,32.9181762,-86.2327497
19,"Covington, Alabama",37914,31.196549,-86.4597236
20,"Crenshaw, Alabama",13977,31.6809362,-86.3244009
21,"Cullman, Alabama",81289,34.1335332,-86.8779268
22,"Dale, Alabama",49484,31.3940969,-85.623763
23,"Dallas, Alabama",41711,32.3117968,-87.1046643
24,"DeKalb, Alabama",71065,34.4524349,-85.7662118
25,"Elmore, Alabama",80977,32.5801231,-86.125195
26,"Escambia, Alabama",37733,31.1168422,-87.1070947
27,"Etowah, Alabama",103531,34.0371404,-86.022147
28,"Fayette, Alabama",16874,33.7303493,-87.7419088
29,"Franklin, Alabama",31601,34.440962,-87.8339064
30,"Geneva, Alabama",26712,31.0862933,-85.803014
31,"Greene, Alabama",8553,32.8620514,-87.9915392
32,"Hale, Alabama",15184,32.7412417,-87.6561668
33,"Henry, Alabama",17190,31.4838041,-85.2447377
34,"Houston, Alabama",104193,31.1355603,-85.2654592
35,"Jackson, Alabama",52665,34.7692447,-85.9867941
36,"Jefferson, Alabama",660793,33.5228184,-86.9164513
37,"Lamar, Alabama",14086,33.7490016,-88.1003689
38,"Lauderdale, Alabama",93096,34.9049555,-87.6747398
39,"Lawrence, Alabama",33477,34.4776367,-87.3017331
40,"Lee, Alabama",154255,32.5814796,-85.3077038
41,"Limestone, Alabama",90787,34.8342463,-86.9901321
42,"Lowndes, Alabama",10580,32.1088066,-86.6402541
43,"Macon, Alabama",19425,32.366606,-85.6660307
44,"Madison, Alabama",350299,34.7736807,-86.5675095
45,"Marengo, Alabama",20110,32.201002,-87.7569365
46,"Marion, Alabama",30271,34.1128132,-87.8544031
47,"Marshall, Alabama",94636,34.3396046,-86.3301801
48,"Mobile, Alabama",415123,30.6943566,-88.0430541
49,"Monroe, Alabama",21947,31.5593935,-87.3781004
50,"Montgomery, Alabama",226189,32.3669656,-86.3006485
51,"Morgan, Alabama",119607,34.4296848,-86.8529584
52,"Perry, Alabama",9826,32.6421387,-87.2876639
53,"Pickens, Alabama",20365,33.2948421,-88.1244034
54,"Pike, Alabama",33389,31.7615793,-85.9259465
55,"Randolph, Alabama",22539,33.2651763,-85.4693961
56,"Russell, Alabama",59608,32.2698458,-85.1959487
57,"Shelby, Alabama",206655,33.2503347,-86.6639746
58,"St. Clair, Alabama",86697,33.7086407,-86.3364
59,"Sumter, Alabama",13166,32.5234698,-88.1837986
60,"Talladega, Alabama",81322,33.4359416,-86.1058048
61,"Tallapoosa, Alabama",41165,32.8595687,-85.8023774
62,"Tuscaloosa, Alabama",202212,33.2668398,-87.4862182
63,"Walker, Alabama",65471,33.7804491,-87.2767248
64,"Washington, Alabama",16834,31.3991238,-88.2019828
65,"Wilcox, Alabama",11098,31.9523021,-87.3005169
66,"Winston, Alabama",24150,34.1328863,-87.361354
67,"Aleutians East, Alaska",3360,55.0512443,-162.8916892
68,"Aleutians West, Alaska",5750,51.5672222,178.8776
69,"Anchorage, Alaska",301010,61.2163129,-149.8948522
70,"Bethel, Alaska",17868,60.7922222,-161.7558333
71,"Bristol Bay, Alaska",957,58.7370341,-156.8753867
72,"Denali, Alaska",1921,63.0686667,-151.0029999
73,"Dillingham, Alaska",4988,59.9011107,-158.2016852
74,"Fairbanks North Star, Alaska",99357,64.8649039,-146.7751619
75,"Haines, Alaska",2566,59.0831232,-135.3430573
76,"Hoonah-Angoon, Alaska",2082,57.57666,-134.1311512
77,"Juneau, Alaska",32406,58.3019496,-134.4197339
78,"Kenai Peninsula, Alaska",57477,60.0968272,-151.788033
79,"Ketchikan Gateway, Alaska",13787,55.4895146,-131.0109264
80,"Kodiak Island, Alaska",13986,57.37122705,-153.19013546
81,"Lake and Peninsula, Alaska",1631,58.3277109,-156.154765
82,"Matanuska-Susitna, Alaska",97882,62.3402481,-149.4793288
83,"Nome, Alaska",9817,64.51282,-165.424253714
84,"North Slope, Alaska",9703,69.5335129,-153.8220681
85,"Northwest Arctic, Alaska",7717,67.2385127,-159.9816347
86,"Petersburg, Alaska",3160,56.8127965,-132.95547
87,"Prince of Wales-Hyder, Alaska",6396,55.4028302,-132.9467059
88,"Sitka, Alaska",8900,57.0524973,-135.3376124
89,"Skagway, Alaska",1036,59.4583333,-135.3138891
90,"Southeast Fairbanks, Alaska",6931,63.9412119,-143.7303712
91,"Valdez-Cordova, Alaska",9488,61.2620896,-144.7914471
92,"Wade Hampton, Alaska",8010,62.2002165,-163.764702
93,"Wrangell, Alaska",2364,56.4156225,-132.300945236
94,"Yakutat, Alaska",635,59.6391781,-139.3429439
95,"Yukon-Koyukuk, Alaska",5547,65.7963587,-152.4239927
96,"Apache, Arizona",71828,35.214632,-109.4786676
97,"Cochise, Arizona",127448,31.8514532,-109.8181858
98,"Coconino, Arizona",137682,35.9363252,-111.6948197
99,"Gila, Arizona",53119,33.7517565,-110.8052705
100,"Graham, Arizona",37957,32.8397096,-109.8685752
101,"Greenlee, Arizona",9346,33.2312681,-109.2751297
102,"La Paz, Arizona",20231,33.7923828,-114.0184443
103,"Maricopa, Arizona",4087191,33.34883,-112.49123
104,"Mohave, Arizona",203361,35.7218038,-113.8271174
105,"Navajo, Arizona",108101,35.1819775,-110.3549451
106,"Pima, Arizona",1004516,32.1112624,-111.6546163
107,"Pinal, Arizona",401918,32.8085851,-111.4426212
108,"Santa Cruz, Arizona",46695,31.5094579,-110.8476281
109,"Yavapai, Arizona",218844,34.5668857,-112.5515965
110,"Yuma, Arizona",203247,32.665167,-114.475904895
111,"Arkansas, Arkansas",18594,34.2902454,-91.3598511
112,"Ashley, Arkansas",20948,33.1742582,-91.7295595
113,"Baxter, Arkansas",40857,36.2820691,-92.3445222
114,"Benton, Arkansas",242321,36.3456186,-94.2670404
115,"Boone, Arkansas",37196,36.2829183,-93.0784759
116,"Bradley, Arkansas",11148,33.4494147,-92.16876
117,"Calhoun, Arkansas",5202,33.5556787,-92.5143633
118,"Carroll, Arkansas",27744,36.3386737,-93.5093048
119,"Chicot, Arkansas",11180,33.2536665,-91.3026986
120,"Clark, Arkansas",22576,34.0541966,-93.198963
121,"Clay, Arkansas",15118,36.3609902,-90.4087659
122,"Cleburne, Arkansas",25634,35.5298937,-92.0312818
123,"Cleveland, Arkansas",8449,33.8847138,-92.1724506
124,"Columbia, Arkansas",23933,33.1938586,-93.2344337
125,"Conway, Arkansas",21083,35.0886963,-92.4421011
126,"Craighead, Arkansas",102518,35.8348413,-90.6441144
127,"Crawford, Arkansas",61697,35.5803044,-94.2684622
128,"Crittenden, Arkansas",49548,35.2505701,-90.3192299
129,"Cross, Arkansas",17227,35.3001216,-90.7750181
130,"Dallas, Arkansas",7755,33.9630776,-92.6853662
131,"Desha, Arkansas",12264,33.7740219,-91.3110517
132,"Drew, Arkansas",18622,33.5716907,-91.7160969
133,"Faulkner, Arkansas",120768,35.1470851,-92.3219053
134,"Franklin, Arkansas",17805,35.5110075,-93.8864847
135,"Fulton, Arkansas",12125,36.3783981,-91.8110982
136,"Garland, Arkansas",97322,34.5488944,-93.1838539
137,"Grant, Arkansas",18144,34.2773864,-92.420578
138,"Greene, Arkansas",43694,36.091803,-90.5778883
139,"Hempstead, Arkansas",22327,33.6949319,-93.6929825
140,"Hot Spring, Arkansas",33368,34.2956351,-92.9005742
141,"Howard, Arkansas",13500,34.0744088,-93.9745776
142,"Independence, Arkansas",36959,35.718344,-91.55326
143,"Izard, Arkansas",13486,36.0832532,-91.8894787
144,"Jackson, Arkansas",17534,35.5770886,-91.196742
145,"Jefferson, Arkansas",72297,34.2711667,-91.9248307
146,"Johnson, Arkansas",26005,35.5600697,-93.4550108
147,"Lafayette, Arkansas",7111,33.1821484,-93.5972459
148,"Lawrence, Arkansas",16931,36.0078212,-91.1655476
149,"Lee, Arkansas",9860,34.7836833,-90.7759619
150,"Lincoln, Arkansas",13970,33.9359663,-91.7713274
151,"Little River, Arkansas",12532,33.6968793,-94.2065398
152,"Logan, Arkansas",21958,35.2255171,-93.7233321
153,"Lonoke, Arkansas",71557,34.7414404,-91.862792
154,"Madison, Arkansas",15740,35.9728095,-93.7589024
155,"Marion, Arkansas",16367,35.228404,-90.1748518947
156,"Miller, Arkansas",43428,33.2766729,-93.9214795
157,"Mississippi, Arkansas",44235,35.7547987,-90.0875933
158,"Monroe, Arkansas",7582,34.6778982,-91.2289578
159,"Montgomery, Arkansas",9082,34.5218805,-93.6508234
160,"Nevada, Arkansas",8723,33.6413476,-93.3055491
161,"Newton, Arkansas",7904,35.918468,-93.2273047
162,"Ouachita, Arkansas",24828,33.5680929,-92.9355875
163,"Perry, Arkansas",10245,34.9616474,-92.8757514
164,"Phillips, Arkansas",19930,34.4427373,-90.8331287
165,"Pike, Arkansas",11024,34.1435885,-93.6428966
166,"Poinsett, Arkansas",24246,35.5730183,-90.6717121
167,"Polk, Arkansas",20225,34.4995799,-94.2397116
168,"Pope, Arkansas",63201,35.453867,-93.0498623
169,"Prairie, Arkansas",8304,34.8105247,-91.5751148
170,"Pulaski, Arkansas",392702,34.7550166,-92.3003472
171,"Randolph, Arkansas",17571,36.3412315,-91.0387017
172,"Saline, Arkansas",115719,34.6021249,-92.6542869
173,"Scott, Arkansas",10693,34.8469384,-94.0431714
174,"Searcy, Arkansas",7929,35.2506406,-91.7362488
175,"Sebastian, Arkansas",126776,35.1770785,-94.2654285
176,"Sevier, Arkansas",17426,33.9867858,-94.243888
177,"Sharp, Arkansas",16906,36.1344424,-91.4930274
178,"St. Francis, Arkansas",26899,35.0153956,-90.7263194
179,"Stone, Arkansas",12494,35.8317159,-92.1747633
180,"Union, Arkansas",40227,33.1637366,-92.6171029
181,"Van Buren, Arkansas",16851,35.436756,-94.348268
182,"Washington, Arkansas",220792,35.9672625,-94.2280656
183,"White, Arkansas",78592,35.2463042,-91.7169687
184,"Woodruff, Arkansas",6910,35.1714574,-91.2229851
185,"Yell, Arkansas",21951,34.9906072,-93.4283105
186,"Alameda, California",1610921,37.6090291,-121.899142
187,"Alpine, California",1116,38.5893934,-119.8345013
188,"Amador, California",36742,38.449089,-120.5911018
189,"Butte, California",224241,39.6519275,-121.5858444
190,"Calaveras, California",44624,38.2558181,-120.4981492
191,"Colusa, California",21419,39.1465578,-122.2209563
192,"Contra Costa, California",1111339,37.9034806,-121.9175345
193,"Del Norte, California",27212,41.7261767,-123.91328
194,"El Dorado, California",183087,38.7574137,-120.5276129
195,"Fresno, California",965974,36.7295295,-119.708861161
196,"Glenn, California",27955,39.5912766,-122.3778662
197,"Humboldt, California",134809,40.5997415,-123.8997734
198,"Imperial, California",179091,33.0305487,-115.3595666
199,"Inyo, California",18410,36.5595325,-117.4074712
200,"Kern, California",874589,35.3145701,-118.7538222
201,"Kings, California",150269,36.0784807,-119.7956342
202,"Lake, California",64184,39.0505411,-122.7776556
203,"Lassen, California",31749,40.7685579,-120.730998
204,"Los Angeles, California",10116705,34.053717,-118.2427265
205,"Madera, California",154548,37.1716264,-119.7737991
206,"Marin, California",260750,38.0409144,-122.6199638
207,"Mariposa, California",17682,37.570148,-119.9036592
208,"Mendocino, California",87869,39.3176491,-123.4126399
209,"Merced, California",266353,37.3029568,-120.4843269
210,"Modoc, California",9023,41.5450487,-120.7435998
211,"Mono, California",13997,37.9533927,-118.9398758
212,"Monterey, California",431344,36.583431,-121.8540929
213,"Napa, California",141667,38.2971367,-122.2855293
214,"Nevada, California",98893,39.3540335,-120.8089843
215,"Orange, California",3145515,33.7500378,-117.8704931
216,"Placer, California",371694,39.1012064,-120.7650606
217,"Plumas, California",18606,39.9430988,-120.8059521
218,"Riverside, California",2329271,33.9533546,-117.3961623
219,"Sacramento, California",1482026,38.561652,-121.450028158
220,"San Benito, California",58267,36.6248089,-121.1177379
221,"San Bernardino, California",2112619,34.1083449,-117.2897652
222,"San Diego, California",3263431,32.7174209,-117.1627714
223,"San Francisco, California",852469,37.7792768,-122.4192704
224,"San Joaquin, California",715597,37.9372901,-121.2773719
225,"San Luis Obispo, California",279083,35.2827525,-120.6596156
226,"San Mateo, California",758581,37.496904,-122.3330573
